url,name,address,neighborhood,latitude,longitude,amenities
https://www.quintoandar.com.br/condominio/isola-valenzano-itacorubi-florianopolis-1d47s12e0d,Condomínio Isola Valenzano,"Rua Jornalista Manoel Menezes, 35",Itacorubi,-27.57906723022461,-48.51081085205078,Elevador; Corrimão; Vaga de garagem acessível; Piscina; Churrasqueira; Salão de festas; Academia; Salão de jogos; Rampas de acesso; Playground
https://www.quintoandar.com.br/condominio/rua-presidente-coutinho-582-centro-florianopolis-p6js86qrrk,"Condomínio em Rua Presidente Coutinho, 582","Rua Presidente Coutinho, 582",Centro,-27.5911808013916,-48.54732131958008,Piso tátil; Rampas de acesso; Vaga de garagem acessível; Corrimão
https://www.quintoandar.com.br/condominio/taj-mahal-itacorubi-florianopolis-9p18se147k,Condomínio Taj Mahal,"Rodovia Admar Gonzaga, 1547",Itacorubi,-27.58352279663086,-48.50300216674805,Gás encanado; Salão de festas; Piscina; Playground; Quadra esportiva; Corrimão; Piso tátil; Área verde; Churrasqueira; Espaço gourmet na área comum; Portaria 24h
https://www.quintoandar.com.br/condominio/rua-deputado-antonio-edu-vieira-222-pantanal-florianopolis-jpqms2vl3d,"Condomínio em Rua Deputado Antônio Edu Vieira, 222","Rua Deputado Antônio Edu Vieira, 222",Saco dos Limões,-27.61241340637207,-48.525211334228516,Espaço gourmet na área comum; Elevador; Salão de festas; Playground; Gás encanado; Corrimão; Vaga de garagem acessível; Rampas de acesso; Churrasqueira; Piso tátil; Área verde; Portaria 24h
https://www.quintoandar.com.br/condominio/rua-antonio-jose-thomaz-da-costa-500-lagoa-pequena-florianopolis-p0gsgg43nk,"Condomínio em Rua Antônio José Thomaz da Costa, 500","Rua Antônio José Thomaz da Costa, 500",Rio Tavares,-27.662137985229492,-48.47853469848633,Elevador; Piso tátil; Vaga de garagem acessível; Rampas de acesso; Salão de festas; Área verde; Churrasqueira; Piscina; Corrimão
https://www.quintoandar.com.br/condominio/riviera-coqueiros-florianopolis-9d37s0qwgp,Condomínio Riviera,"Rua Capitão Euclídes de Castro, 403",Coqueiros,-27.604053497314453,-48.57706832885742,Elevador; Salão de festas; Gás encanado; Churrasqueira
https://www.quintoandar.com.br/condominio/residencial-maria-esther-balneario-florianopolis-rp0gs6gl4k,Residencial Maria Esther,"Rua Antônio Gomes, 51",Canto,-27.583656311035156,-48.58297348022461,Piscina; Academia; Elevador; Salão de festas; Espaço gourmet na área comum; Playground; Portaria 24h
https://www.quintoandar.com.br/condominio/residencial-matheus-ingleses-do-rio-vermelho-florianopolis-ek99sm10xk,Residencial Matheus,"Servidão Juvêncio Caetano Marquês, 191",Ingleses,-27.452171325683594,-48.41151428222656,Vaga de garagem acessível; Churrasqueira; Gás encanado; Espaço gourmet na área comum
https://www.quintoandar.com.br/condominio/cruzeiro-do-sul-ingleses-norte-florianopolis-ek99s71j9k,Condomínio Cruzeiro do Sul,"Rua das Gaivotas, 1467",Ingleses,-27.425382614135742,-48.40147018432617,Piscina; Vaga de garagem acessível; Corrimão; Salão de festas; Churrasqueira; Elevador; Rampas de acesso; Área verde; Quadra esportiva; Portaria 24h
https://www.quintoandar.com.br/condominio/residencial-porto-da-lagoa-lagoa-da-conceicao-florianopolis-9dzqs84qqd,Residencial Porto da Lagoa,"Rua Laurindo Januário da Silveira, 4367",Porto da Lagoa,-27.625377655029297,-48.47856140136719,Churrasqueira; Playground; Sauna; Academia; Piscina; Quadra esportiva; Elevador; Área verde; Vaga de garagem acessível; Portaria 24h
https://www.quintoandar.com.br/condominio/servidao-dona-vitorina-lopes-140-campeche-florianopolis-jdjrsjv91k,"Condomínio em Servidão Dona Vitórina Lopes, 140","Servidão Dona Vitórina Lopes, 140",Campeche,-27.70476722717285,-48.505210876464844,Gás encanado; Churrasqueira; Rampas de acesso; Corrimão; Espaço gourmet na área comum; Vaga de garagem acessível; Piso tátil
https://www.quintoandar.com.br/condominio/anabella-centro-florianopolis-9d37s62vep,Condomínio AnaBella,"Rua Ferreira Lima, 199",Centro,-27.58977699279785,-48.54397201538086,Espaço gourmet na área comum; Churrasqueira; Salão de festas; Piscina; Gás encanado; Salão de jogos; Elevador; Portaria 24h
https://www.quintoandar.com.br/condominio/plaza-mediterranee-capoeiras-florianopolis-7kg3s7rr2p,Condomínio Plaza Mediterranee,"Rua Álvaro Tolentino, 644",Capoeiras,-27.602418899536133,-48.593040466308594,Salão de festas; Quadra esportiva; Churrasqueira; Portaria 24h
https://www.quintoandar.com.br/condominio/recanto-do-ribeirao-ribeirao-da-ilha-florianopolis-9dzqsy8y9d,Condomínio Recanto do Ribeirão,"Rodovia Baldicero Filomeno, 836",Alto Ribeirão Leste,-27.706878662109375,-48.51587677001953,Playground; Corrimão; Espaço gourmet na área comum; Churrasqueira; Salão de festas; Área verde; Piso tátil; Rampas de acesso; Vaga de garagem acessível; Portaria 24h
https://www.quintoandar.com.br/condominio/costa-sul-itacorubi-florianopolis-3keysggemp,Condomínio Costa Sul,"Rua Itapiranga, 156",Itacorubi,-27.59090805053711,-48.50137710571289,Salão de festas; Playground; Churrasqueira; Elevador; Piscina; Academia; Gás encanado; Espaço gourmet na área comum; Portaria 24h
https://www.quintoandar.com.br/condominio/servidao-professora-rosemari-e-nunes-141-ingleses-norte-florianopolis-kg3s86gjxp,"Condomínio em Servidão Professora Rosemari E. Nunes, 141","Servidão Professora Rosemari E. Nunes, 141",Ingleses,-27.452613830566406,-48.41325378417969,Vaga de garagem acessível; Rampas de acesso; Corrimão; Churrasqueira
https://www.quintoandar.com.br/condominio/residencial-capri-canasvieiras-florianopolis-keys5j0nqp,Residencial Capri,"Rua dos Eucalíptos, 242",Canasvieiras,-27.430070877075195,-48.45057678222656,Elevador; Vaga de garagem acessível; Churrasqueira; Corrimão
https://www.quintoandar.com.br/condominio/jardim-ingleses-ingleses-do-rio-vermelho-florianopolis-ed5zsnmggd,Condomínio Jardim Ingleses,"Servidão Três Marias, 285",Ingleses,-27.43545913696289,-48.410186767578125,Playground; Churrasqueira; Salão de festas; Quadra esportiva; Piscina; Espaço gourmet na área comum; Portaria 24h
https://www.quintoandar.com.br/condominio/ilha-das-flores-canasvieiras-florianopolis-xplgs35eqk,Condomínio Ilha das Flores,"Rua Mario Lacombe, 662",Canasvieiras,-27.429574966430664,-48.46214294433594,Lavanderia no prédio; Gás encanado; Elevador
https://www.quintoandar.com.br/condominio/dom-fabricio-coqueiros-florianopolis-rdyosqj33k,Condomínio Dom Fabricio,"Rua Jaú Guedes da Fonseca, 135",Coqueiros,-27.605440139770508,-48.57577133178711,Churrasqueira; Elevador; Piscina; Salão de festas; Gás encanado; Piso tátil; Vaga de garagem acessível; Corrimão; Academia; Rampas de acesso
https://www.quintoandar.com.br/condominio/residencial-augusto-ruschi-coloninha-florianopolis-ndv7sxew7d,Residencial Augusto Ruschi,"Rua Tenente Olímpio Costa, 114",Coloninha,-27.59181022644043,-48.589454650878906,Playground; Gás encanado; Elevador; Salão de festas; Portaria 24h
https://www.quintoandar.com.br/condominio/rua-pedro-soares-28-centro-florianopolis-vk87sn0ygp,"Condomínio em Rua Pedro Soares, 28","Rua Pedro Soares, 28",Centro,-27.596527099609375,-48.54703903198242,Elevador; Gás encanado
https://www.quintoandar.com.br/condominio/residencial-bergantim-capoeiras-florianopolis-ek99sgylok,Residencial Bergantim,"Rua Doutor Odilon Gallotti, 605",Capoeiras,-27.592519760131836,-48.58742141723633,Gás encanado; Academia; Elevador; Corrimão; Salão de festas; Piscina; Playground; Espaço gourmet na área comum; Rampas de acesso; Piso tátil
https://www.quintoandar.com.br/condominio/rodovia-baldicero-filomeno-2226-ribeirao-da-ilha-florianopolis-d5zsojqled,"Condomínio em Rodovia Baldicero Filomeno, 2226","Rodovia Baldicero Filomeno, 2226",Alto Ribeirão Leste,-27.703664779663086,-48.529052734375,Vaga de garagem acessível; Elevador; Churrasqueira
https://www.quintoandar.com.br/condominio/golden-residence-floripa-ingleses-norte-florianopolis-dw2s9w8jjd,Condomínio Golden Residence Floripa,"Rua Ruth Pereira, 366",Ingleses,-27.443098068237305,-48.38748550415039,Playground; Corrimão; Vaga de garagem acessível; Salão de jogos; Salão de festas; Piscina
https://www.quintoandar.com.br/condominio/azaleia-trindade-florianopolis-jpqms3qjmd,Condomínio Azaleia,"Rua Lauro Linhares, 285",Trindade,-27.582029342651367,-48.526023864746094,Playground; Elevador; Quadra esportiva
https://www.quintoandar.com.br/condominio/lago-del-turano-trindade-florianopolis-p18s09le8k,Condomínio Lago Del Turano,"Rua São Tomás de Aquino, 38",Trindade,-27.595117568969727,-48.51787185668945,Elevador; Salão de festas; Corrimão
https://www.quintoandar.com.br/condominio/rua-jose-ventura-76-trindade-florianopolis-wk27s1m3lp,"Condomínio em Rua José Ventura, 76","Rua José Ventura, 76",Trindade,-27.591901779174805,-48.522369384765625,Gás encanado; Lavanderia no prédio; Corrimão
https://www.quintoandar.com.br/condominio/rodovia-doutor-antonio-luiz-moura-gonzaga-3825-rio-tavares-florianopolis-wk27s54jep,"Condomínio em Rodovia Doutor Antônio Luiz Moura Gonzaga, 3825","Rodovia Doutor Antônio Luiz Moura Gonzaga, 3825",Rio Tavares,-27.658767700195312,-48.491111755371094,Academia; Vaga de garagem acessível; Área verde; Playground; Piscina; Salão de jogos; Quadra esportiva; Salão de festas; Churrasqueira; Sauna; Espaço gourmet na área comum; Piso tátil; Gás encanado; Rampas de acesso; Portaria 24h
https://www.quintoandar.com.br/condominio/vila-florida-ingleses-do-rio-vermelho-florianopolis-4pxns87j7d,Condomínio Vila Florida,"Rua Abel Álvares Cabral Júnior, 149",Ingleses,-27.423612594604492,-48.40305709838867,Churrasqueira; Gás encanado; Salão de festas; Espaço gourmet na área comum; Playground; Quadra esportiva; Portaria 24h
https://www.quintoandar.com.br/condominio/rodovia-tertuliano-brito-xavier-2501-jurere-florianopolis-8kojson0zd,"Condomínio em Rodovia Tertuliano Brito Xavier, 2501","Rodovia Tertuliano Brito Xavier, 2501",Canasvieiras,-27.431848526000977,-48.47829818725586,Piscina; Salão de festas; Gás encanado; Elevador; Churrasqueira
https://www.quintoandar.com.br/condominio/porto-cachoeira-cachoeira-do-bom-jesus-florianopolis-ek99s7g87k,Condomínio Porto Cachoeira,"Rua Leonel Pereira, 165",Cachoeira do Bom Jesus,-27.42103385925293,-48.43165588378906,Piscina; Elevador; Gás encanado
https://www.quintoandar.com.br/condominio/paulier-centro-florianopolis-jdjrsq34lk,Condomínio Paulier,"Rua Tenente Silveira, 798",Centro,-27.59287452697754,-48.55604934692383,Piscina; Vaga de garagem acessível; Elevador; Salão de jogos; Salão de festas; Corrimão; Gás encanado; Espaço gourmet na área comum; Churrasqueira; Piso tátil
https://www.quintoandar.com.br/condominio/heitor-bittencourt-canasvieiras-florianopolis-ek99sl2v8k,Condomínio Heitor Bittencourt,"Rua Heitor Bitencourt, 268",Canasvieiras,-27.42927360534668,-48.46955871582031,Espaço gourmet na área comum; Corrimão; Gás encanado; Vaga de garagem acessível
https://www.quintoandar.com.br/condominio/camarus-centro-florianopolis-0d71s40l9d,Condomínio Camarus,"Rua Almirante Lamego, 943",Centro,-27.58928108215332,-48.558902740478516,Vaga de garagem acessível; Salão de festas; Corrimão
https://www.quintoandar.com.br/condominio/conjunto-habitacional-panorama-capoeiras-florianopolis-ed5zse029d,Condomínio Conjunto Habitacional Panorama,"Rua Joaquim Nabuco, 1100",Capoeiras,-27.592418670654297,-48.587947845458984,Quadra esportiva; Salão de festas; Piso tátil; Corrimão; Playground; Área verde; Gás encanado; Portaria 24h
https://www.quintoandar.com.br/condominio/plaza-saint-tropez-itacorubi-florianopolis-9p6js620xk,Condomínio Plaza Saint Tropez,"Rua Pastor William Richard Schisler Filho, 856",Itacorubi,-27.576059341430664,-48.5078125,Rampas de acesso; Piscina; Vaga de garagem acessível; Brinquedoteca; Academia; Playground; Churrasqueira; Corrimão; Salão de jogos; Elevador; Salão de festas; Gás encanado; Quadra esportiva; Piso tátil; Espaço gourmet na área comum; Portaria 24h
https://www.quintoandar.com.br/condominio/rodovia-virgilio-varzea-408-saco-grande-florianopolis-dv7sgzn80d,"Condomínio em Rodovia Virgílio Várzea, 408","Rodovia Virgílio Várzea, 408",Monte Verde,-27.555734634399414,-48.49822235107422,Piso tátil; Playground; Churrasqueira; Academia; Corrimão; Piscina; Elevador; Área verde; Rampas de acesso; Vaga de garagem acessível; Salão de festas
https://www.quintoandar.com.br/condominio/portal-dos-acorianos-itacorubi-florianopolis-knzsyo63wk,Condomínio Portal dos Açorianos,"Servidão Amaral Antero Bastos, 29",Itacorubi,-27.5775203704834,-48.505859375,Rampas de acesso; Área verde; Churrasqueira; Vaga de garagem acessível; Salão de festas; Elevador; Corrimão; Playground; Portaria 24h
https://www.quintoandar.com.br/condominio/rua-capitao-romualdo-de-barros-694-saco-dos-limoes-florianopolis-2drrsj494d,"Condomínio em Rua Capitão Romualdo de Barros, 694","Rua Capitão Romualdo de Barros, 694",Saco dos Limões,-27.60418128967285,-48.52921676635742,Gás encanado; Elevador; Piscina; Quadra esportiva; Churrasqueira; Salão de festas; Portaria 24h
https://www.quintoandar.com.br/condominio/ville-boiteux-canasvieiras-florianopolis-4pxnsgwn4d,Condomínio Ville Boiteux,"Avenida Luiz Boiteux Piazza, 4464",Ponta das Canas,-27.41082763671875,-48.42443084716797,Elevador; Piscina; Gás encanado; Salão de festas
https://www.quintoandar.com.br/condominio/rua-tereza-francelina-lopes-363-alto-ribeirao-leste-florianopolis-dzqsn5xezd,"Condomínio em Rua Tereza Francelina Lopes, 363","Rua Tereza Francelina Lopes, 363",Alto Ribeirão Leste,-27.704891204833984,-48.5132942199707,Vaga de garagem acessível
https://www.quintoandar.com.br/condominio/res-alicia-e-luana-corrego-grande-florianopolis-ek99swrwek,Condomínio Res. Alícia e Luana,"Rua Sebastião L. da Silva, 152",Córrego Grande,-27.602338790893555,-48.5044059753418,Churrasqueira; Academia; Elevador; Salão de festas; Piscina; Sauna; Gás encanado; Espaço gourmet na área comum; Playground; Portaria 24h
https://www.quintoandar.com.br/condominio/rua-francisco-candido-xavier-1322-campeche-florianopolis-dzqsn87xyd,"Condomínio em Rua Francisco Cândido Xavier, 1322","Rua Francisco Cândido Xavier, 1322",Campeche,-27.695363998413086,-48.50297164916992,Vaga de garagem acessível
https://www.quintoandar.com.br/condominio/rua-carlos-loureiro-da-luz-20-corrego-grande-florianopolis-jpqmseorrd,"Condomínio em Rua Carlos Loureiro da Luz, 20","Rua Carlos Loureiro da Luz, 20",Córrego Grande,-27.604591369628906,-48.50327682495117,Churrasqueira; Lavanderia no prédio; Espaço gourmet na área comum; Gás encanado
https://www.quintoandar.com.br/condominio/servidao-teodomiro-menezes-77-porto-da-lagoa-florianopolis-k99s19yw9k,"Condomínio em Servidão Teodomiro Menezes, 77","Servidão Teodomiro Menezes, 77",Porto da Lagoa,-27.63457679748535,-48.472412109375,Vaga de garagem acessível; Corrimão
https://www.quintoandar.com.br/condominio/servidao-heleodoro-joao-florindo-181-barra-da-lagoa-florianopolis-knzsy416ek,"Condomínio em Servidão Heleodoro João Florindo, 181","Servidão Heleodoro João Florindo, 181",Barra da Lagoa,-27.585092544555664,-48.43424987792969,Corrimão; Vaga de garagem acessível
https://www.quintoandar.com.br/condominio/rodovia-joao-gualberto-soares-9777-sao-joao-do-rio-vermelho-florianopolis-9p6jszqj0k,"Condomínio em Rodovia João Gualberto Soares, 9777","Rodovia João Gualberto Soares, 9777",São João do Rio Vermelho,-27.518911361694336,-48.4237174987793,Gás encanado; Vaga de garagem acessível; Espaço gourmet na área comum; Corrimão
https://www.quintoandar.com.br/condominio/vila-inglesa-ingleses-norte-florianopolis-9p6jsn10ek,Condomínio Vila Inglesa,"Rua das Gaivotas, 1657",Ingleses,-27.42400550842285,-48.40143966674805,Churrasqueira; Playground; Elevador; Gás encanado; Espaço gourmet na área comum; Salão de festas; Sauna; Quadra esportiva; Piscina; Salão de jogos; Vaga de garagem acessível; Rampas de acesso; Área verde; Corrimão; Piso tátil; Brinquedoteca; Portaria 24h
https://www.quintoandar.com.br/condominio/servidao-sinfronio-jose-silveira-200-campeche-central-florianopolis-p18s0v3lnk,"Condomínio em Servidão Sinfronio José Silveira, 200","Servidão Sinfronio José Silveira, 200",Rio Tavares,-27.666685104370117,-48.50185012817383,Corrimão; Churrasqueira; Vaga de garagem acessível
https://www.quintoandar.com.br/condominio/rua-dante-de-patta-407-ingleses-do-rio-vermelho-florianopolis-jpqms9x5ld,"Condomínio em Rua Dante de Patta, 407","Rua Dante de Patta, 407",Ingleses,-27.43474006652832,-48.39754867553711,Piso tátil; Gás encanado; Churrasqueira; Corrimão; Vaga de garagem acessível; Espaço gourmet na área comum
https://www.quintoandar.com.br/condominio/ravello-residencial-abraao-florianopolis-d71s6mnemd,Condomínio Ravello Residencial,"Rua João Meirelles, 149",Itaguaçu,-27.615772247314453,-48.591712951660156,Rampas de acesso; Corrimão; Vaga de garagem acessível; Área verde; Piscina; Elevador; Academia; Salão de festas; Churrasqueira; Portaria 24h
https://www.quintoandar.com.br/condominio/servidao-pedro-jose-ferreira-40-porto-da-lagoa-florianopolis-vk87s9m9zp,"Condomínio em Servidão Pedro José Ferreira, 40","Servidão Pedro José Ferreira, 40",Porto da Lagoa,-27.632272720336914,-48.47296905517578,Corrimão; Gás encanado; Espaço gourmet na área comum
https://www.quintoandar.com.br/condominio/estrada-dom-joao-becker-451-ingleses-do-rio-vermelho-florianopolis-rdyos8291k,"Condomínio em Estrada Dom João Becker, 451","Estrada Dom João Becker, 451",Ingleses,-27.43768310546875,-48.390541076660156,Piscina; Gás encanado; Salão de festas; Elevador; Playground; Churrasqueira
https://www.quintoandar.com.br/condominio/estrada-cristovao-machado-de-campos-460-vargem-grande-florianopolis-7kg3soe3zp,"Condomínio em Estrada Cristóvão Machado de Campos, 460","Estrada Cristóvão Machado de Campos, 460",Vargem Grande,-27.45551300048828,-48.451515197753906,Piscina; Elevador; Playground; Churrasqueira
https://www.quintoandar.com.br/condominio/coral-classic-coqueiros-florianopolis-dzqsgo16zd,Condomínio Coral Classic,"Rua Doutor Abel Capela, 184",Coqueiros,-27.606950759887695,-48.579593658447266,Elevador; Rampas de acesso; Vaga de garagem acessível; Salão de jogos; Área verde; Quadra esportiva; Piscina; Academia; Brinquedoteca; Piso tátil; Salão de festas; Playground; Corrimão
https://www.quintoandar.com.br/condominio/servidao-papaterra-664-sao-joao-do-rio-vermelho-florianopolis-p18s0126rk,"Condomínio em Servidão Papaterra, 664","Servidão Papaterra, 664",São João do Rio Vermelho,-27.504329681396484,-48.413272857666016,Vaga de garagem acessível; Corrimão; Área verde; Lavanderia no prédio
https://www.quintoandar.com.br/condominio/rua-major-costa-118-centro-florianopolis-ek99sx5onk,"Condomínio em Rua Major Costa, 118","Rua Major Costa, 118",Centro,-27.596359252929688,-48.54262161254883,Elevador; Salão de festas; Corrimão; Vaga de garagem acessível; Rampas de acesso; Quadra esportiva; Portaria 24h
https://www.quintoandar.com.br/condominio/cristal-park-itacorubi-florianopolis-wdw2sol4gd,Condomínio Cristal Park,"Rodovia Amaro Antônio Viêira, 2623",Itacorubi,-27.58689308166504,-48.49665069580078,Elevador; Piscina; Churrasqueira; Playground; Salão de festas; Academia; Portaria 24h
https://www.quintoandar.com.br/condominio/jardim-trindade-trindade-florianopolis-9dzqs1g68d,Condomínio Jardim Trindade,"Rua Douglas Seabra Levier, 163",Trindade,-27.59628677368164,-48.52500534057617,Espaço gourmet na área comum; Corrimão; Elevador; Vaga de garagem acessível; Churrasqueira; Gás encanado; Rampas de acesso; Piso tátil; Salão de festas; Playground; Portaria 24h
https://www.quintoandar.com.br/condominio/algarve-ii-centro-florianopolis-4pxnsnvzod,Condomínio Algarve II,"Rua Esteves Júnior, 496",Centro,-27.589956283569336,-48.55294418334961,Elevador; Espaço gourmet na área comum; Churrasqueira; Salão de festas; Gás encanado; Corrimão; Área verde; Portaria 24h
https://www.quintoandar.com.br/condominio/ilha-do-sol-saco-dos-limoes-florianopolis-6knzs6oeyk,Condomínio Ilha do Sol,"Rua Capitão Romualdo de Barros, 998",Saco dos Limões,-27.602876663208008,-48.52639389038086,Churrasqueira; Salão de festas; Espaço gourmet na área comum; Gás encanado; Rampas de acesso; Vaga de garagem acessível; Piso tátil; Corrimão; Portaria 24h
https://www.quintoandar.com.br/condominio/heloisa-helena-alto-ribeirao-leste-florianopolis-p6jsj2zw9k,Condomínio Heloísa Helena,"Rua Cedro Rosa do Sul, 38",Alto Ribeirão Leste,-27.703540802001953,-48.5194091796875,Vaga de garagem acessível; Salão de festas; Elevador; Rampas de acesso; Piscina; Piso tátil; Corrimão; Área verde; Churrasqueira
https://www.quintoandar.com.br/condominio/servidao-cid-silva-884-sao-joao-do-rio-vermelho-florianopolis-d47s4vjqyd,"Condomínio em Servidão Cid Silva, 884","Servidão Cid Silva, 884",São João do Rio Vermelho,-27.50012969970703,-48.411521911621094,Vaga de garagem acessível
https://www.quintoandar.com.br/condominio/rua-laura-duarte-prazeres-802-campeche-central-florianopolis-p18s0g054k,"Condomínio em Rua Laura Duarte Prazeres, 802","Rua Laura Duarte Prazeres, 802",Campeche,-27.684579849243164,-48.5034294128418,Vaga de garagem acessível; Corrimão; Churrasqueira; Portaria 24h
https://www.quintoandar.com.br/condominio/servidao-luis-flor-francisco-461-ingleses-do-rio-vermelho-florianopolis-d37s50gj8p,"Condomínio em Servidão Luís Flor Francisco, 461","Servidão Luís Flor Francisco, 461",Ingleses,-27.45612335205078,-48.400352478027344,Churrasqueira; Vaga de garagem acessível; Corrimão; Rampas de acesso
https://www.quintoandar.com.br/condominio/rua-martinho-de-haro-421-ingleses-do-rio-vermelho-florianopolis-pqmsw6v3nd,"Condomínio em Rua Martinho de Haro, 421","Rua Martinho de Haro, 421",Ingleses,-27.429471969604492,-48.402591705322266,Churrasqueira; Corrimão; Salão de festas; Vaga de garagem acessível
https://www.quintoandar.com.br/condominio/rua-vereador-osni-ortiga-1959-lagoa-da-conceicao-florianopolis-dw2s9z6ogd,"Condomínio em Rua Vereador Osni Ortiga, 1959","Rua Vereador Osni Ortiga, 1959",Porto da Lagoa,-27.62420082092285,-48.46574783325195,Elevador; Churrasqueira; Corrimão; Academia; Vaga de garagem acessível; Piso tátil; Piscina; Área verde; Salão de festas
https://www.quintoandar.com.br/condominio/servidao-ostacio-fernando-da-silva-80-ingleses-norte-florianopolis-pm8sqv7zqk,"Condomínio em Servidão Ostácio Fernando da Silva, 80","Servidão Ostácio Fernando da Silva, 80",Ingleses,-27.438562393188477,-48.39885711669922,Vaga de garagem acessível; Elevador; Churrasqueira; Rampas de acesso; Corrimão
https://www.quintoandar.com.br/condominio/bloco-1-ingleses-norte-florianopolis-ek99sqqmjk,Condomínio Bloco 1,"Rua Paulina Marques dos Santos, 529",Ingleses,-27.44917106628418,-48.39896774291992,Vaga de garagem acessível; Rampas de acesso
https://www.quintoandar.com.br/condominio/rua-tereza-lopes-827-campeche-florianopolis-p6js8en0xk,"Condomínio em Rua Tereza Lopes, 827","Rua Tereza Lopes, 827",Campeche,-27.69899559020996,-48.500484466552734,Corrimão; Vaga de garagem acessível; Churrasqueira
https://www.quintoandar.com.br/condominio/vila-dos-acores-ingleses-do-rio-vermelho-florianopolis-3keysy5lqp,Condomínio Vila dos Açores,"Rua Abel Álvares Cabral Júnior, 455",Ingleses,-27.423601150512695,-48.40614700317383,Piscina; Playground; Churrasqueira; Salão de festas; Elevador; Espaço gourmet na área comum; Gás encanado
https://www.quintoandar.com.br/condominio/rua-morro-das-feiticeiras-495-vargem-grande-florianopolis-d37s5773vp,"Condomínio em Rua Morro das Feiticeiras, 495","Rua Morro das Feiticeiras, 495",Ingleses,-27.420713424682617,-48.40770721435547,Rampas de acesso; Elevador; Churrasqueira; Corrimão; Área verde; Vaga de garagem acessível; Piscina; Salão de festas
https://www.quintoandar.com.br/condominio/estrada-anarolina-silveira-santos-248-vargem-do-bom-jesus-florianopolis-dzqsg5mvmd,"Condomínio em Estrada Anarolina Silveira Santos, 248","Estrada Anarolina Silveira Santos, 248",Cachoeira do Bom Jesus,-27.445762634277344,-48.42363357543945,Gás encanado; Espaço gourmet na área comum; Corrimão
https://www.quintoandar.com.br/condominio/estrada-jornalista-jaime-de-arruda-ramos-1253-ponta-das-canas-florianopolis-0d71s9vqzd,"Condomínio em Estrada Jornalista Jaime de Arruda Ramos, 1253","Estrada Jornalista Jaime de Arruda Ramos, 1253",Lagoinha do Norte,-27.38981819152832,-48.42180633544922,Área verde; Churrasqueira; Gás encanado
https://www.quintoandar.com.br/condominio/rodovia-tertuliano-brito-xavier-2311-canasvieiras-florianopolis-3keysrnvlp,"Condomínio em Rodovia Tertuliano Brito Xavier, 2311","Rodovia Tertuliano Brito Xavier, 2311",Canasvieiras,-27.430767059326172,-48.47673416137695,Gás encanado; Piso tátil; Rampas de acesso; Churrasqueira; Piscina; Espaço gourmet na área comum; Salão de jogos; Vaga de garagem acessível; Elevador; Sauna; Área verde; Corrimão; Academia; Salão de festas; Portaria 24h
https://www.quintoandar.com.br/condominio/rua-heitor-bitencourt-441-canasvieiras-florianopolis-k27sg8j7wp,"Condomínio em Rua Heitor Bitencourt, 441","Rua Heitor Bitencourt, 441",Canasvieiras,-27.42769432067871,-48.46928787231445,Elevador; Área verde; Corrimão
https://www.quintoandar.com.br/condominio/rua-gilmar-darli-vieira-466-lagoa-pequena-florianopolis-d71s65434d,"Condomínio em Rua Gilmar Darli Viêira, 466","Rua Gilmar Darli Viêira, 466",Rio Tavares,-27.663593292236328,-48.47666931152344,Elevador; Academia; Salão de festas; Salão de jogos; Rampas de acesso; Piso tátil; Playground; Piscina; Vaga de garagem acessível; Corrimão; Churrasqueira; Portaria 24h
https://www.quintoandar.com.br/condominio/san-blas-residence-joao-paulo-florianopolis-knzsy9432k,Condomínio San Blas Residence,"Rodovia João Paulo, 2608",João Paulo,-27.554996490478516,-48.50886154174805,Playground; Corrimão; Vaga de garagem acessível; Piscina; Área verde; Academia; Brinquedoteca; Churrasqueira; Rampas de acesso; Piso tátil; Salão de festas; Elevador; Salão de jogos; Portaria 24h
https://www.quintoandar.com.br/condominio/citta-life-residence-jurere-leste-florianopolis-ndv7szlgmd,Condomínio Città Life Residence,"Rua das Piraúnas, 1540",Jurerê,-27.44409942626953,-48.48638153076172,Piscina; Churrasqueira; Vaga de garagem acessível; Playground; Salão de jogos; Área verde; Piso tátil; Sauna; Salão de festas; Rampas de acesso; Elevador; Academia; Corrimão; Brinquedoteca; Portaria 24h
https://www.quintoandar.com.br/condominio/sete-mares-ingleses-norte-florianopolis-7kg3sovg0p,Condomínio Sete Mares,"Rua das Gaivotas, 701",Ingleses,-27.43108367919922,-48.39653015136719,Quadra esportiva; Playground; Gás encanado; Academia; Churrasqueira; Piscina; Espaço gourmet na área comum; Elevador; Portaria 24h
https://www.quintoandar.com.br/condominio/estrada-dom-joao-becker-671-ingleses-do-rio-vermelho-florianopolis-drrsrn0m5d,"Condomínio em Estrada Dom João Becker, 671","Estrada Dom João Becker, 671",Ingleses,-27.438892364501953,-48.38981246948242,Elevador; Rampas de acesso; Corrimão; Vaga de garagem acessível; Churrasqueira; Portaria 24h
https://www.quintoandar.com.br/condominio/porto-das-aguas-ingleses-norte-florianopolis-rp0gs9859k,Condomínio Porto Das Aguas,"Rua das Gaivotas, 849",Ingleses,-27.430564880371094,-48.39729309082031,Churrasqueira; Elevador; Salão de festas; Piscina; Gás encanado; Rampas de acesso; Vaga de garagem acessível; Corrimão; Área verde; Piso tátil; Espaço gourmet na área comum; Portaria 24h
https://www.quintoandar.com.br/condominio/residencial-agata-agronomica-florianopolis-9p18s6onwk,Residencial Agata,"Rua Delminda Silveira, 740",Agronômica,-27.57734489440918,-48.528743743896484,Elevador; Quadra esportiva; Playground; Churrasqueira; Gás encanado; Salão de festas; Piscina; Espaço gourmet na área comum; Academia; Portaria 24h
https://www.quintoandar.com.br/condominio/residence-hannover-trindade-florianopolis-d37sggqq8p,Condomínio Residence Hannover,"Rua Augusto Lídio Píres, 38",Trindade,-27.59402847290039,-48.51850128173828,Churrasqueira; Piso tátil; Academia; Elevador; Salão de festas; Playground; Corrimão; Vaga de garagem acessível; Rampas de acesso
https://www.quintoandar.com.br/condominio/rua-florianopolis-5296-mathias-velho-canoas-d47s92vved,"Condomínio em Rua Florianópolis, 5296","Rua Florianópolis, 5296",Harmonia,-29.9051570892334,-51.232879638671875,Corrimão
https://www.quintoandar.com.br/condominio/studio-veneto-pantanal-florianopolis-rdyos7oygk,Condomínio Studio Vêneto,"Rua Maria Eduarda, 238",Pantanal,-27.607616424560547,-48.516971588134766,Elevador; Salão de festas; Vaga de garagem acessível; Rampas de acesso; Piso tátil; Corrimão; Churrasqueira; Salão de jogos; Espaço gourmet na área comum; Gás encanado; Área verde; Portaria 24h
https://www.quintoandar.com.br/condominio/servidao-jose-ventura-59-trindade-florianopolis-d47s4ry7wd,"Condomínio em Servidão José Ventura, 59","Servidão José Ventura, 59",Trindade,-27.592119216918945,-48.52192687988281,Corrimão
https://www.quintoandar.com.br/condominio/servidao-maria-cardoso-de-assis-bastos-17-lagoa-da-conceicao-florianopolis-p0gs5lj8jk,"Condomínio em Servidão Maria Cardoso de Assis Bastos, 17","Servidão Maria Cardoso de Assis Bastos, 17",Lagoa da Conceição,-27.608556747436523,-48.48513412475586,Vaga de garagem acessível; Área verde
https://www.quintoandar.com.br/condominio/rua-das-camelias-72-carvoeira-florianopolis-0d71s9lgrd,"Condomínio em Rua das Camélias, 72","Rua das Camélias, 72",Saco dos Limões,-27.60426139831543,-48.526126861572266,Piso tátil; Corrimão; Salão de festas; Espaço gourmet na área comum; Salão de jogos; Gás encanado; Academia; Rampas de acesso; Piscina; Elevador; Portaria 24h
https://www.quintoandar.com.br/condominio/travessa-joao-jose-clemente-95-itacorubi-florianopolis-9dzqs1163d,"Condomínio em Travessa João José Clemente, 95","Travessa João José Clemente, 95",Itacorubi,-27.582233428955078,-48.49473190307617,Espaço gourmet na área comum; Lavanderia no prédio
https://www.quintoandar.com.br/condominio/residencial-alghero-lagoa-pequena-florianopolis-ndv7sxzo8d,Residencial Alghero,"Rua Nivaldo Dias, 105",Rio Tavares,-27.66385841369629,-48.4779052734375,Elevador; Espaço gourmet na área comum; Churrasqueira; Piscina; Gás encanado
https://www.quintoandar.com.br/condominio/servidao-mar-azul-60-campeche-leste-florianopolis-k87s7158wp,"Condomínio em Servidão Mar Azul, 60","Servidão Mar Azul, 60",Campeche,-27.690731048583984,-48.48612976074219,Churrasqueira; Vaga de garagem acessível; Área verde
https://www.quintoandar.com.br/condominio/residencial-casablanca-campeche-florianopolis-wdw2swo1gd,Residencial Casablanca,"Servidão São Francisco de Assis, 33",Campeche,-27.683937072753906,-48.482730865478516,Piscina; Elevador; Espaço gourmet na área comum; Salão de festas; Gás encanado
https://www.quintoandar.com.br/condominio/bellmare-ingleses-norte-florianopolis-1d47sojqjd,Condomínio Bellmare,"Rua Abel Álvares Cabral Júnior, 397",Ingleses,-27.42367935180664,-48.40542984008789,Piscina; Elevador; Gás encanado; Espaço gourmet na área comum; Salão de festas
https://www.quintoandar.com.br/condominio/servidao-professora-rosemari-e-nunes-303-ingleses-norte-florianopolis-6knzsrrnyk,"Condomínio em Servidão Professora Rosemari E. Nunes, 303","Servidão Professora Rosemari E. Nunes, 303",Ingleses,-27.452716827392578,-48.4121208190918,Churrasqueira; Rampas de acesso; Vaga de garagem acessível
https://www.quintoandar.com.br/condominio/rua-elke-hering-153-barra-da-lagoa-florianopolis-vk87svmezp,"Condomínio em Rua Elke Hering, 153","Rua Elke Hering, 153",Barra da Lagoa,-27.572681427001953,-48.43009567260742,Gás encanado; Espaço gourmet na área comum; Salão de festas; Churrasqueira; Vaga de garagem acessível; Corrimão
https://www.quintoandar.com.br/condominio/residencial-primavera-ingleses-do-rio-vermelho-florianopolis-rdyos5l1rk,Residencial Primavera,"Rua Recanto do Sol, 510",Ingleses,-27.424644470214844,-48.40618896484375,Elevador; Salão de festas
https://www.quintoandar.com.br/condominio/quay-jurere-internacional-florianopolis-knzsy4z7gk,Condomínio Quay,"Avenida dos Búzios, 3370",Jurerê,-27.433935165405273,-48.513214111328125,Rampas de acesso; Salão de festas; Vaga de garagem acessível; Área verde; Elevador; Corrimão; Academia; Playground; Brinquedoteca; Piscina; Portaria 24h
https://www.quintoandar.com.br/condominio/rua-manoel-mancelos-moura-661-canasvieiras-florianopolis-7kg3s47xzp,"Condomínio em Rua Manoel Mancelos Moura, 661","Rua Manoel Mancelos Moura, 661",Canasvieiras,-27.428157806396484,-48.45692825317383,Elevador; Gás encanado; Piscina; Salão de festas; Portaria 24h
https://www.quintoandar.com.br/condominio/servidao-joao-patricio-74-ingleses-do-rio-vermelho-florianopolis-djrsvlr96k,"Condomínio em Servidão João Patrício, 74","Servidão João Patrício, 74",Ingleses,-27.443668365478516,-48.39716720581055,Churrasqueira; Rampas de acesso; Vaga de garagem acessível
https://www.quintoandar.com.br/condominio/rua-grumixama-127-moenda-florianopolis-drrsn3rq2d,"Condomínio em Rua Grumixama, 127","Rua Grumixama, 127",Campeche,-27.69422721862793,-48.50823211669922,Rampas de acesso; Churrasqueira; Vaga de garagem acessível
https://www.quintoandar.com.br/condominio/rua-florianopolis-47-praca-seca-rio-de-janeiro-pqmswzxe6d,"Condomínio em Rua Florianópolis, 47","Rua Florianópolis, 47",Vila Valqueire,-22.895843505859375,-43.36345672607422,
https://www.quintoandar.com.br/condominio/aguas-da-cachoeira-canasvieiras-florianopolis-rp0gsyoq1k,Condomínio Águas da Cachoeira,"Avenida Luiz Boiteux Piazza, 3975",Cachoeira do Bom Jesus,-27.41573143005371,-48.42680740356445,Elevador; Espaço gourmet na área comum; Churrasqueira; Salão de festas; Playground; Piscina; Gás encanado; Quadra esportiva; Academia; Portaria 24h
https://www.quintoandar.com.br/condominio/la-romana-abraao-florianopolis-jdjrsgj4ok,Condomínio La Romana,"Rua João Meirelles, 342",Itaguaçu,-27.614166259765625,-48.592735290527344,Elevador; Gás encanado; Piscina; Salão de festas; Rampas de acesso; Corrimão; Churrasqueira; Vaga de garagem acessível; Espaço gourmet na área comum
https://www.quintoandar.com.br/condominio/ilha-das-laranjeiras-sao-joao-do-rio-vermelho-florianopolis-kg3s8462xp,Condomínio Ilha das Laranjeiras,"Avenida Red Park, 784",São João do Rio Vermelho,-27.47573471069336,-48.404361724853516,Churrasqueira; Área verde; Quadra esportiva; Salão de festas; Playground; Piscina; Vaga de garagem acessível; Corrimão; Piso tátil; Rampas de acesso; Portaria 24h
https://www.quintoandar.com.br/condominio/jose-durieux-coqueiros-florianopolis-jpqms7qgld,Condomínio José Durieux,"Avenida Engenheiro Max de Souza, 951",Coqueiros,-27.60428810119629,-48.57606887817383,Gás encanado; Salão de festas; Elevador; Churrasqueira
https://www.quintoandar.com.br/condominio/mario-quintana-estreito-florianopolis-wk27s66m5p,Condomínio Mario Quintana,"Rua Doutor Heitor Blum, 214",Estreito,-27.5881290435791,-48.57827377319336,Salão de festas; Quadra esportiva; Espaço gourmet na área comum; Academia; Elevador; Gás encanado; Piscina; Playground; Portaria 24h
https://www.quintoandar.com.br/condominio/sonata-place-agronomica-florianopolis-9d37s04nrp,Condomínio Sonata Place,"Rua Comandante Constantino Nicolau Spyrides, 4152",Agronômica,-27.57420539855957,-48.539398193359375,Piscina; Brinquedoteca; Playground; Academia; Salão de jogos; Área verde; Churrasqueira; Elevador; Corrimão; Piso tátil; Rampas de acesso; Salão de festas; Vaga de garagem acessível; Espaço gourmet na área comum; Gás encanado; Sauna; Quadra esportiva; Portaria 24h
https://www.quintoandar.com.br/condominio/servidao-leonel-domingos-da-silva-41-ingleses-norte-florianopolis-plgsqerxxk,"Condomínio em Servidão Leonel Domingos da Silva, 41","Servidão Leonel Domingos da Silva, 41",Santinho,-27.449195861816406,-48.37989044189453,Corrimão; Vaga de garagem acessível; Área verde
https://www.quintoandar.com.br/condominio/por-do-sol-abraao-florianopolis-xplgs9wz5k,Condomínio Por do Sol,"Rua João Meirelles, 1248",Abraão,-27.605775833129883,-48.59396743774414,Piscina; Elevador; Gás encanado; Playground; Salão de festas; Portaria 24h
https://www.quintoandar.com.br/condominio/mirante-do-sol-agronomica-florianopolis-9p6js37o6k,Condomínio Mirante do Sol,"Rua Aristídes Lôbo, 340",Agronômica,-27.575725555419922,-48.531734466552734,Elevador; Salão de festas; Portaria 24h
https://www.quintoandar.com.br/condominio/joao-seben-itacorubi-florianopolis-3keysy59np,Condomínio Joao Seben,"Rodovia Amaro Antônio Viêira, 1866",Itacorubi,-27.58285140991211,-48.50166702270508,Salão de festas; Playground; Quadra esportiva; Vaga de garagem acessível; Rampas de acesso; Elevador; Churrasqueira
https://www.quintoandar.com.br/condominio/catharina-feltrin-carvoeira-florianopolis-3keys771np,Condomínio Catharina Feltrin,"Rua José João Martendal, 315",Trindade,-27.598709106445312,-48.52711868286133,Elevador; Salão de festas; Gás encanado; Espaço gourmet na área comum
https://www.quintoandar.com.br/condominio/rua-cruz-e-souza-418-centro-florianopolis-k87s7qv4gp,"Condomínio em Rua Cruz e Souza, 418","Rua Cruz e Souza, 418",Centro,-27.584428787231445,-48.53965759277344,Elevador; Piso tátil; Churrasqueira; Corrimão; Vaga de garagem acessível; Piscina; Rampas de acesso
https://www.quintoandar.com.br/condominio/servidao-arnoldo-de-oliveira-45-trindade-florianopolis-kg3s8820xp,"Condomínio em Servidão Arnoldo de Oliveira, 45","Servidão Arnoldo de Oliveira, 45",Trindade,-27.59547233581543,-48.52520751953125,Corrimão; Espaço gourmet na área comum; Gás encanado; Churrasqueira
https://www.quintoandar.com.br/condominio/servidao-deolindo-costa-141-saco-dos-limoes-florianopolis-kojs2o0zod,"Condomínio em Servidão Deolindo Costa, 141","Servidão Deolindo Costa, 141",Saco dos Limões,-27.609050750732422,-48.53041076660156,Elevador; Salão de festas; Vaga de garagem acessível; Piso tátil; Corrimão
https://www.quintoandar.com.br/condominio/fernanda-corrego-grande-florianopolis-9pm8so6yjk,Condomínio Fernanda,"Rua João Pio Duarte Silva, 844",Córrego Grande,-27.599918365478516,-48.508697509765625,Salão de festas; Espaço gourmet na área comum; Corrimão; Gás encanado; Vaga de garagem acessível; Elevador
https://www.quintoandar.com.br/condominio/rua-cedro-rosa-do-sul-94-alto-ribeirao-leste-florianopolis-p6js8108zk,"Condomínio em Rua Cedro Rosa do Sul, 94","Rua Cedro Rosa do Sul, 94",Alto Ribeirão Leste,-27.703561782836914,-48.51958084106445,Elevador; Salão de festas; Vaga de garagem acessível; Rampas de acesso; Piscina; Corrimão; Churrasqueira; Piso tátil
https://www.quintoandar.com.br/condominio/rua-santa-luzia-271-trindade-florianopolis-rdyos1j6xk,"Condomínio em Rua Santa Luzia, 271","Rua Santa Luzia, 271",Trindade,-27.594593048095703,-48.518428802490234,Lavanderia no prédio; Vaga de garagem acessível; Corrimão; Gás encanado; Espaço gourmet na área comum
https://www.quintoandar.com.br/condominio/residencial-lisboa-santo-antonio-de-lisboa-florianopolis-9pm8szlerk,Residêncial Lisboa,"Rua Teodoro Manoel Dias, 100",Santo Antônio de Lisboa,-27.506059646606445,-48.51287078857422,Churrasqueira; Salão de festas; Playground; Quadra esportiva; Vaga de garagem acessível
https://www.quintoandar.com.br/condominio/premier-residence-cachoeira-do-bom-jesus-florianopolis-9p18s7e0mk,Condomínio Premier Residence,"Rua da Sibipiruna, 117",Cachoeira do Bom Jesus,-27.42346954345703,-48.42456817626953,Elevador; Salão de festas; Gás encanado; Churrasqueira; Piscina
https://www.quintoandar.com.br/condominio/mocamba-dunas-beach-sao-joao-do-rio-vermelho-florianopolis-wk27s99exp,Condomínio Moçamba Dunas Beach,"Rua Diácono Ademi Pereira de Abreu, 300",São João do Rio Vermelho,-27.49626350402832,-48.40803146362305,Piscina; Salão de festas; Lavanderia no prédio
https://www.quintoandar.com.br/condominio/rua-joaquim-jose-antunes-120-campeche-central-florianopolis-k87s7n08op,"Condomínio em Rua Joaquim José Antunes, 120","Rua Joaquim José Antunes, 120",Campeche,-27.675168991088867,-48.5075798034668,Piscina; Rampas de acesso; Churrasqueira; Corrimão; Elevador; Academia; Piso tátil; Salão de festas; Vaga de garagem acessível
https://www.quintoandar.com.br/condominio/edificio-del-rey-jardim-cidade-de-florianopolis-sao-jose-rp0gslz23k,Edifício Del Rey,"Rua Doralice Ramos Pinho, 349",Cidade Jardim de Florianópolis,-27.56466293334961,-48.61721420288086,Vaga de garagem acessível; Corrimão; Salão de festas; Churrasqueira; Piso tátil
https://www.quintoandar.com.br/condominio/residencial-lua-northe-ingleses-do-rio-vermelho-florianopolis-9p18s32wnk,Residencial Lua Northe,"Travessa Lua Nova, 111",Ingleses,-27.451114654541016,-48.40345764160156,Churrasqueira; Vaga de garagem acessível; Corrimão
https://www.quintoandar.com.br/condominio/edificio-agata-capoeiras-florianopolis-d37s55j2yp,Edifício Ágata,"Avenida Vereador Nagib Jabor, 333",Capoeiras,-27.595096588134766,-48.59483337402344,Corrimão; Vaga de garagem acessível; Gás encanado; Espaço gourmet na área comum
https://www.quintoandar.com.br/condominio/residencial-cafe-capoeiras-florianopolis-9d37s7oznp,Residencial Café,"Rua Paula Ramos, 801",Coqueiros,-27.604646682739258,-48.584720611572266,Churrasqueira; Gás encanado
https://www.quintoandar.com.br/condominio/residencial-belize-joao-paulo-florianopolis-ek99s8693k,Residencial Belize,"Rodovia João Paulo, 432",João Paulo,-27.568429946899414,-48.51388931274414,Vaga de garagem acessível; Corrimão; Piscina; Elevador; Salão de festas; Piso tátil; Rampas de acesso; Churrasqueira; Área verde; Portaria 24h
https://www.quintoandar.com.br/condominio/solar-de-francavilla-itacorubi-florianopolis-9d37s7q7vp,Condomínio Solar de Francavilla,"Rodovia Amaro Antônio Viêira, 2463",Itacorubi,-27.58570671081543,-48.49681854248047,Piscina; Salão de festas; Academia; Playground; Quadra esportiva; Elevador; Churrasqueira; Corrimão; Piso tátil; Rampas de acesso; Vaga de garagem acessível; Portaria 24h
https://www.quintoandar.com.br/condominio/porto-do-itacorubi-itacorubi-florianopolis-wdw2sm9g7d,Condomínio Porto do Itacorubi,"Rodovia Amaro Antônio Viêira, 2593",Itacorubi,-27.586153030395508,-48.4959716796875,Elevador; Academia; Vaga de garagem acessível; Churrasqueira; Área verde; Sauna; Piso tátil; Corrimão; Piscina; Salão de festas; Espaço gourmet na área comum; Quadra esportiva; Gás encanado; Rampas de acesso; Salão de jogos; Brinquedoteca; Playground; Portaria 24h
https://www.quintoandar.com.br/condominio/rua-projetada-cc2-348-itaguacu-florianopolis-pqmsw4g53d,"Condomínio em Rua Projetada CC2, 348","Rua Projetada CC2, 348",Abraão,-27.608800888061523,-48.59221267700195,Churrasqueira; Área verde; Piscina; Academia; Portaria 24h
https://www.quintoandar.com.br/condominio/ilha-bela-itacorubi-florianopolis-2drrsm7n9d,Condomínio Ilha Bela,"Rodovia Amaro Antônio Viêira, 1940",Itacorubi,-27.58317756652832,-48.50111770629883,Vaga de garagem acessível; Elevador; Corrimão; Piscina; Churrasqueira
https://www.quintoandar.com.br/condominio/waldemiro-tholl-itacorubi-florianopolis-rdyos553lk,Condomínio Waldemiro Tholl,"Rodovia Amaro Antônio Viêira, 1890",Itacorubi,-27.582849502563477,-48.50149917602539,Espaço gourmet na área comum; Gás encanado; Elevador; Salão de festas; Playground; Churrasqueira; Portaria 24h
https://www.quintoandar.com.br/condominio/mys-home-design-canto-florianopolis-knzsy96jwk,Condomínio Mys Home Design,"Rua Afonso Pena, 542",Canto,-27.58823013305664,-48.58189010620117,Elevador; Rampas de acesso; Academia; Área verde; Corrimão; Salão de festas; Piscina; Brinquedoteca; Lavanderia no prédio; Piso tátil; Salão de jogos; Vaga de garagem acessível; Playground; Portaria 24h
https://www.quintoandar.com.br/condominio/rua-joao-motta-espezim-840-saco-dos-limoes-florianopolis-9pm8s1lzqk,"Condomínio em Rua João Motta Espezim, 840","Rua João Motta Espezim, 840",Saco dos Limões,-27.609270095825195,-48.53221130371094,Gás encanado; Salão de festas; Churrasqueira; Lavanderia no prédio; Espaço gourmet na área comum; Portaria 24h
https://www.quintoandar.com.br/condominio/villaggio-di-fortuna-ingleses-do-rio-vermelho-florianopolis-kojs22qqzd,Condomínio Villaggio di Fortuna,"Rua Abel Álvares Cabral Júnior, 530",Ingleses,-27.4229736328125,-48.40685272216797,Corrimão; Churrasqueira; Espaço gourmet na área comum; Rampas de acesso; Elevador; Piso tátil; Gás encanado; Vaga de garagem acessível
https://www.quintoandar.com.br/condominio/rua-araci-vaz-callado-881-canto-florianopolis-6knzsm9q4k,"Condomínio em Rua Araci Vaz Callado, 881","Rua Araci Vaz Callado, 881",Canto,-27.586580276489258,-48.5838623046875,Corrimão
https://www.quintoandar.com.br/condominio/residencial-brisas-do-atlantico-jardim-atlantico-florianopolis-9dzqs7rj4d,Residencial Brisas do Atlântico,"Avenida Atlântica, 327",Jardim Atlântico,-27.576416015625,-48.598724365234375,Elevador; Gás encanado; Playground; Academia; Salão de festas; Portaria 24h
https://www.quintoandar.com.br/condominio/avenida-dos-salmoes-874-jurere-florianopolis-pm8sq6en7k,"Condomínio em Avenida dos Salmões, 874","Avenida dos Salmões, 874",Jurerê,-27.440959930419922,-48.50179672241211,Rampas de acesso; Vaga de garagem acessível; Elevador; Corrimão; Churrasqueira
https://www.quintoandar.com.br/condominio/reesidencial-piemont-centro-florianopolis-p18s01992k,Condomínio Reesidencial Piemont,"Rua Crispim Mira, 405",Centro,-27.591758728027344,-48.541805267333984,Corrimão; Rampas de acesso; Elevador; Piscina; Piso tátil; Vaga de garagem acessível; Salão de festas; Portaria 24h
https://www.quintoandar.com.br/condominio/servidao-joao-luis-de-souto-240-ingleses-do-rio-vermelho-florianopolis-pqmsw9qwld,"Condomínio em Servidão João Luís de Souto, 240","Servidão João Luís de Souto, 240",Ingleses,-27.44171905517578,-48.3997802734375,Corrimão; Vaga de garagem acessível
https://www.quintoandar.com.br/condominio/soprano-hall-agronomica-florianopolis-9dzqsn793d,Condomínio Soprano Hall,"Servidão Paulo Zimmer, 55",Agronômica,-27.57491683959961,-48.53850173950195,Salão de festas; Espaço gourmet na área comum; Elevador; Churrasqueira; Piscina; Playground; Academia; Gás encanado; Quadra esportiva; Portaria 24h
https://www.quintoandar.com.br/condominio/jazz-club-agronomica-florianopolis-3keys7394p,Condomínio Jazz Club,"Servidão Paulo Zimmer, 101",Agronômica,-27.57456398010254,-48.53853988647461,Elevador; Brinquedoteca; Vaga de garagem acessível; Piscina; Salão de festas; Quadra esportiva; Playground; Churrasqueira; Academia; Sauna; Portaria 24h
https://www.quintoandar.com.br/condominio/residencial-baia-do-sol-agronomica-florianopolis-ed5zsne2od,Residencial Baia do Sol,"Rua Delminda Silveira, 729",Agronômica,-27.57713508605957,-48.528892517089844,Piscina; Playground; Salão de festas; Portaria 24h
https://www.quintoandar.com.br/condominio/spazio-trindade-trindade-florianopolis-d47s441wrd,Condomínio Spazio Trindade,"Rua João Marçal, 216",Trindade,-27.594242095947266,-48.523780822753906,Elevador; Lavanderia no prédio; Salão de jogos; Playground; Salão de festas; Corrimão; Rampas de acesso; Vaga de garagem acessível; Churrasqueira; Piso tátil
https://www.quintoandar.com.br/condominio/rua-jose-ventura-59-trindade-florianopolis-d71s64w3od,"Condomínio em Rua José Ventura, 59","Rua José Ventura, 59",Trindade,-27.591510772705078,-48.522727966308594,Corrimão
https://www.quintoandar.com.br/condominio/rua-pastor-william-richard-schisler-filho-448-itacorubi-florianopolis-9p6js9jw6k,"Condomínio em Rua Pastor William Richard Schisler Filho, 448","Rua Pastor William Richard Schisler Filho, 448",Itacorubi,-27.57650375366211,-48.51072311401367,Churrasqueira; Salão de festas; Elevador; Quadra esportiva; Playground; Piscina; Espaço gourmet na área comum; Gás encanado; Academia; Portaria 24h
https://www.quintoandar.com.br/condominio/rua-jaborandi-744-campeche-central-florianopolis-pqmsw6o2zd,"Condomínio em Rua Jaborandi, 744","Rua Jaborandi, 744",Campeche,-27.677711486816406,-48.502891540527344,Vaga de garagem acessível; Churrasqueira
https://www.quintoandar.com.br/condominio/neo-next-generation-lagoa-pequena-florianopolis-plgsqorymk,Condomínio Neo Next Generation,"Rua Otávio Cruz, 500",Rio Tavares,-27.66313934326172,-48.47763442993164,Academia; Rampas de acesso; Elevador; Salão de festas; Área verde; Vaga de garagem acessível; Churrasqueira; Salão de jogos; Piscina; Sauna; Corrimão
https://www.quintoandar.com.br/condominio/barramares-centro-florianopolis-9p18syeg0k,Condomínio Barramares,"Rua Padre Roma, 221",Centro,-27.594226837158203,-48.55690383911133,Elevador; Churrasqueira; Corrimão; Salão de festas; Vaga de garagem acessível; Piso tátil; Portaria 24h
https://www.quintoandar.com.br/condominio/servidao-das-gerberas-6-sao-joao-do-rio-vermelho-florianopolis-xplgsn1x8k,"Condomínio em Servidão das Gérberas, 6","Servidão das Gérberas, 6",São João do Rio Vermelho,-27.480358123779297,-48.40889358520508,Churrasqueira; Vaga de garagem acessível
https://www.quintoandar.com.br/condominio/ilha-de-petra-ingleses-norte-florianopolis-wk27s68x9p,Condomínio Ilha de Petra,"Rua Recanto do Sol, 300",Ingleses,-27.424863815307617,-48.40377426147461,Espaço gourmet na área comum; Gás encanado; Elevador; Salão de festas; Piscina; Churrasqueira
https://www.quintoandar.com.br/condominio/avenida-dos-salmoes-535-jurere-internacional-florianopolis-k87s74063p,"Condomínio em Avenida dos Salmões, 535","Avenida dos Salmões, 535",Jurerê,-27.443775177001953,-48.50244140625,Rampas de acesso; Piso tátil; Vaga de garagem acessível; Corrimão; Piscina; Brinquedoteca; Salão de festas; Elevador; Academia
https://www.quintoandar.com.br/condominio/servidao-olimpio-manuel-da-costa-187-canasvieiras-florianopolis-9d37s05r0p,"Condomínio em Servidão Olímpio Manuel da Costa, 187","Servidão Olímpio Manuel da Costa, 187",Canasvieiras,-27.441816329956055,-48.46318054199219,Gás encanado; Churrasqueira
https://www.quintoandar.com.br/condominio/avenida-afonso-delambert-neto-926-lagoa-da-conceicao-florianopolis-9dzqsznm3d,"Condomínio em Avenida Afonso Delambert Neto, 926","Avenida Afonso Delambert Neto, 926",Lagoa da Conceição,-27.60744285583496,-48.466922760009766,Elevador; Churrasqueira; Salão de festas; Espaço gourmet na área comum; Gás encanado
https://www.quintoandar.com.br/condominio/brisas-de-jurere-jurere-florianopolis-dyosw42njk,Condomínio Brisas de Jurere,"Rodovia Jornalista Maurício Sirotski Sobrinho, 5610",Jurerê,-27.444360733032227,-48.486820220947266,Playground; Piscina; Salão de festas; Área verde; Elevador; Brinquedoteca; Salão de jogos; Vaga de garagem acessível; Churrasqueira; Rampas de acesso; Piso tátil; Corrimão
https://www.quintoandar.com.br/condominio/avenida-florianopolis-217-cajuru-curitiba-7kg3s94xlp,"Condomínio em Avenida Florianópolis, 217","Avenida Florianópolis, 217",Cajuru,-25.460338592529297,-49.21752166748047,Espaço gourmet na área comum; Rampas de acesso; Piso tátil; Piscina; Quadra esportiva; Churrasqueira; Elevador; Playground; Gás encanado; Corrimão; Salão de festas; Portaria 24h
https://www.quintoandar.com.br/condominio/residencial-rinascenza-capoeiras-florianopolis-9dzqszw62d,Residencial Rinascenza,"Avenida Patrício Caldeira de Andrada, 772",Abraão,-27.60555648803711,-48.592594146728516,Piscina; Rampas de acesso; Piso tátil; Elevador; Vaga de garagem acessível; Área verde; Churrasqueira; Corrimão; Academia; Salão de festas; Playground; Gás encanado
https://www.quintoandar.com.br/condominio/rua-florianopolis-252-alto-da-gloria-goiania-dzqsg9xvzd,"Condomínio em Rua Florianópolis, 252","Rua Florianópolis, 252",Residencial Itaipu,-16.715600967407227,-49.23729705810547,Área verde; Sauna; Corrimão; Brinquedoteca; Salão de festas; Elevador; Salão de jogos; Piscina; Quadra esportiva; Rampas de acesso; Vaga de garagem acessível; Playground; Academia; Portaria 24h
https://www.quintoandar.com.br/condominio/residencial-florence-capoeiras-florianopolis-9d37sm6g1p,Residencial Florence,"Rua Fermino Costa, 176",Capoeiras,-27.599119186401367,-48.588226318359375,Elevador; Salão de festas; Gás encanado
https://www.quintoandar.com.br/condominio/residencial-tripoli-capoeiras-florianopolis-8kojsvw9yd,Residencial Trípoli,"Avenida Vereador Nagib Jabor, 140",Capoeiras,-27.59646224975586,-48.594573974609375,Salão de festas; Elevador; Corrimão; Rampas de acesso; Piso tátil; Churrasqueira; Gás encanado
https://www.quintoandar.com.br/condominio/acqua-agronomica-florianopolis-0d71s8g9md,Condomínio Acqua,"Rua Frei Caneca, 17",Agronômica,-27.582683563232422,-48.543853759765625,Espaço gourmet na área comum; Salão de festas; Piscina; Elevador; Gás encanado; Sauna; Churrasqueira; Playground; Portaria 24h
https://www.quintoandar.com.br/condominio/residencial-paris-ingleses-do-rio-vermelho-florianopolis-1d47sn4x9d,Residencial Paris,"Rua Graciliano Manoel Gomes, 898",Ingleses,-27.447492599487305,-48.409141540527344,Elevador; Piso tátil; Corrimão; Churrasqueira; Gás encanado; Espaço gourmet na área comum; Vaga de garagem acessível; Rampas de acesso
https://www.quintoandar.com.br/condominio/aconcagua-home-e-business-estreito-florianopolis-vk87sx1w9p,Condomínio Aconcágua Home e Business,"Rua Santiago Dantas, 752",Estreito,-27.59258460998535,-48.580875396728516,Playground; Gás encanado; Piscina; Elevador; Academia; Salão de festas; Churrasqueira; Espaço gourmet na área comum; Portaria 24h
https://www.quintoandar.com.br/condominio/rua-das-camelias-36-saco-dos-limoes-florianopolis-wk27sx223p,"Condomínio em Rua das Camélias, 36","Rua das Camélias, 36",Saco dos Limões,-27.604143142700195,-48.525840759277344,Elevador; Lavanderia no prédio; Espaço gourmet na área comum; Churrasqueira; Salão de festas; Gás encanado; Portaria 24h
https://www.quintoandar.com.br/condominio/rua-antonio-da-silveira-75-lagoa-da-conceicao-florianopolis-jpqms4oyjd,"Condomínio em Rua Antônio da Silveira, 75","Rua Antônio da Silveira, 75",Lagoa da Conceição,-27.601646423339844,-48.46611404418945,Churrasqueira; Corrimão; Vaga de garagem acessível
https://www.quintoandar.com.br/condominio/residencial-mirabello-joao-paulo-florianopolis-0d71s499od,Residencial Mirabello,"Rua Coronel Luiz Caldeira, 149",Itacorubi,-27.572961807250977,-48.51131057739258,Vaga de garagem acessível; Corrimão; Rampas de acesso; Salão de festas; Piso tátil; Elevador; Área verde; Churrasqueira; Portaria 24h
https://www.quintoandar.com.br/condominio/residencialconrado-lagoa-pequena-florianopolis-jdjrs950rk,Condomínio Residencialconrado,"Rua Ana Luiza Vieira, 83",Rio Tavares,-27.66623306274414,-48.478294372558594,Gás encanado; Elevador; Salão de festas
https://www.quintoandar.com.br/condominio/servidao-thomazia-rita-da-silveira-170-sao-joao-do-rio-vermelho-florianopolis-djrs662rvk,"Condomínio em Servidão Thomazia Rita da Silveira, 170","Servidão Thomazia Rita da Silveira, 170",São João do Rio Vermelho,-27.465923309326172,-48.413143157958984,Corrimão
https://www.quintoandar.com.br/condominio/paris-dakar-itacorubi-florianopolis-ndv7sq2g8d,Condomínio Paris Dakar,"Rodovia Amaro Antônio Viêira, 2371",Itacorubi,-27.584936141967773,-48.49717712402344,Academia; Corrimão; Elevador; Vaga de garagem acessível; Salão de jogos; Playground; Salão de festas; Piscina; Quadra esportiva; Churrasqueira; Piso tátil; Brinquedoteca; Rampas de acesso; Gás encanado; Espaço gourmet na área comum; Portaria 24h
https://www.quintoandar.com.br/condominio/servidao-serafim-policiano-de-menezes-112-sao-joao-do-rio-vermelho-florianopolis-6knzsq01qk,"Condomínio em Servidão Serafim Policiano de Menezes, 112","Servidão Serafim Policiano de Menezes, 112",São João do Rio Vermelho,-27.501768112182617,-48.420196533203125,Vaga de garagem acessível; Corrimão
https://www.quintoandar.com.br/condominio/servidao-anibal-magalhaes-83-cachoeira-do-bom-jesus-leste-florianopolis-d37s5z9jwp,"Condomínio em Servidão Aníbal Magalhães, 83","Servidão Aníbal Magalhães, 83",Cachoeira do Bom Jesus Leste,-27.429080963134766,-48.42205810546875,Área verde; Corrimão; Piscina; Vaga de garagem acessível
https://www.quintoandar.com.br/condominio/servidao-antonio-tiago-nunes-500-s-joao-rio-vermelho-florianopolis-jpqmsgoojd,"Condomínio em Servidão Antonio Tiago Nunes, 500","Servidão Antonio Tiago Nunes, 500",São João do Rio Vermelho,-27.486589431762695,-48.41520690917969,Vaga de garagem acessível; Rampas de acesso
https://www.quintoandar.com.br/condominio/porto-principe-ingleses-norte-florianopolis-9pm8sjv6lk,Condomínio Porto Principe,"Rua dos Lordes, 237",Ingleses,-27.431888580322266,-48.39842987060547,Salão de festas; Corrimão; Vaga de garagem acessível; Churrasqueira; Gás encanado
https://www.quintoandar.com.br/condominio/servidao-cinco-rosas-530-sao-joao-do-rio-vermelho-florianopolis-d71s6mr8gd,"Condomínio em Servidão Cinco Rosas, 530","Servidão Cinco Rosas, 530",São João do Rio Vermelho,-27.50585174560547,-48.419166564941406,Vaga de garagem acessível; Área verde; Lavanderia no prédio
https://www.quintoandar.com.br/condominio/servidao-nilson-pereira-da-cunha-125-ingleses-do-rio-vermelho-florianopolis-d5zso345wd,"Condomínio em Servidão Nilson Pereira da Cunha, 125","Servidão Nilson Pereira da Cunha, 125",Santinho,-27.4495792388916,-48.3809814453125,Churrasqueira; Vaga de garagem acessível; Corrimão
https://www.quintoandar.com.br/condominio/dom-virgilio-ingleses-norte-florianopolis-wk27s841qp,Condomínio Dom Virgílio,"Rua Ilha das Galés, 272",Ingleses,-27.422225952148438,-48.40435028076172,Piscina; Gás encanado; Portaria 24h
https://www.quintoandar.com.br/condominio/rua-professor-joao-jose-cabral-207-balneario-florianopolis-ek99s7823k,"Condomínio em Rua Professor João José Cabral, 207","Rua Professor João José Cabral, 207",Balneário,-27.57892608642578,-48.586280822753906,Elevador; Playground; Piso tátil; Piscina; Vaga de garagem acessível; Rampas de acesso; Corrimão; Churrasqueira; Salão de festas; Gás encanado
https://www.quintoandar.com.br/condominio/avenida-jornalista-rubens-de-arruda-ramos-1892-centro-florianopolis-drrsn1v9yd,"Condomínio em Avenida Jornalista Rubéns de Arruda Ramos, 1892","Avenida Jornalista Rubéns de Arruda Ramos, 1892",Centro,-27.586780548095703,-48.55182647705078,Elevador; Corrimão; Churrasqueira; Rampas de acesso; Piso tátil; Vaga de garagem acessível; Salão de festas
https://www.quintoandar.com.br/condominio/casa-grande-agronomica-florianopolis-1d47s145wd,Condomínio Casa Grande,"Avenida Governador Irineu Bornhausen, 3690",Agronômica,-27.575117111206055,-48.541290283203125,Salão de festas; Elevador; Piscina; Churrasqueira; Portaria 24h
https://www.quintoandar.com.br/condominio/avenida-dos-buzios-470-jurere-florianopolis-pm8sqvqn7k,"Condomínio em Avenida dos Búzios, 470","Avenida dos Búzios, 470",Jurerê,-27.440900802612305,-48.48826599121094,Rampas de acesso; Corrimão; Elevador; Vaga de garagem acessível; Churrasqueira
https://www.quintoandar.com.br/condominio/floripa-residence-monte-verde-florianopolis-1d47sxz85d,Condomínio Floripa Residence,"Rua Almiscar, 120",Monte Verde,-27.55584716796875,-48.49746322631836,Elevador; Academia; Espaço gourmet na área comum; Piscina; Gás encanado; Salão de festas; Playground; Churrasqueira; Portaria 24h
https://www.quintoandar.com.br/condominio/solaris-trindade-florianopolis-3keysgl26p,Condomínio Solaris,"Rua Gonçalves Lêdo, 72",Trindade,-27.585777282714844,-48.525428771972656,Elevador; Gás encanado; Salão de festas; Churrasqueira; Espaço gourmet na área comum
https://www.quintoandar.com.br/condominio/mondrian-residence-itacorubi-florianopolis-4pxnsew4yd,Condomínio Mondrian Residence,"Rua Acelon Pachêco da Costa, 151",Itacorubi,-27.57889747619629,-48.509971618652344,Elevador; Churrasqueira; Salão de festas
https://www.quintoandar.com.br/condominio/dona-gelta-corrego-grande-florianopolis-d47s4x8exd,Condomínio Dona Gelta,"Rua João Pio Duarte Silva, 1070",Córrego Grande,-27.60008430480957,-48.506771087646484,Elevador; Salão de festas; Vaga de garagem acessível; Quadra esportiva; Playground; Piscina; Área verde; Corrimão; Rampas de acesso; Churrasqueira; Portaria 24h
https://www.quintoandar.com.br/condominio/servidao-rodolpho-augusto-passing-104-monte-verde-florianopolis-d37s52l5jp,"Condomínio em Servidão Rodolpho Augusto Passing, 104","Servidão Rodolpho Augusto Passing, 104",Monte Verde,-27.5625057220459,-48.50178527832031,Vaga de garagem acessível; Corrimão
https://www.quintoandar.com.br/condominio/residencial-boulevard-davignion-corrego-grande-florianopolis-0d71seo0md,Residencial Boulevard Dávignion,"Rua Mediterrâneo, 172",Córrego Grande,-27.60265350341797,-48.50102615356445,Playground; Rampas de acesso; Elevador; Corrimão; Vaga de garagem acessível; Salão de festas; Gás encanado; Churrasqueira
https://www.quintoandar.com.br/condominio/sunset-residence-alto-ribeirao-leste-florianopolis-dyosw7j27k,Condomínio Sunset Residence,"Rua Jabuticabeira do Sul, 130",Alto Ribeirão Leste,-27.701440811157227,-48.51837158203125,Piso tátil; Vaga de garagem acessível; Elevador; Churrasqueira; Corrimão; Lavanderia no prédio; Salão de festas; Rampas de acesso
https://www.quintoandar.com.br/condominio/residencial-reggio-di-calabria-pantanal-florianopolis-2drrs387vd,Residencial Reggio di Calabria,"Rua Pedro Viêira Vidal, 280",Pantanal,-27.608848571777344,-48.5257568359375,Churrasqueira; Academia; Área verde; Piscina; Elevador; Quadra esportiva; Salão de festas; Salão de jogos; Vaga de garagem acessível; Playground; Rampas de acesso; Brinquedoteca; Portaria 24h
https://www.quintoandar.com.br/condominio/rua-otavio-cruz-354-lagoa-pequena-florianopolis-p18s0y1nrk,"Condomínio em Rua Otávio Cruz, 354","Rua Otávio Cruz, 354",Rio Tavares,-27.663841247558594,-48.478267669677734,Vaga de garagem acessível; Corrimão; Churrasqueira; Portaria 24h
https://www.quintoandar.com.br/condominio/rua-mar-azul-profundo-45-lagoa-pequena-florianopolis-p6jsjjqqok,"Condomínio em Rua Mar Azul Profundo, 45","Rua Mar Azul Profundo, 45",Rio Tavares,-27.654361724853516,-48.47391128540039,Vaga de garagem acessível; Churrasqueira; Elevador
https://www.quintoandar.com.br/condominio/servidao-altino-manoel-claudino-1020-sao-joao-do-rio-vermelho-florianopolis-xplgsemn7k,"Condomínio em Servidão Altíno Manoel Claudino, 1020","Servidão Altíno Manoel Claudino, 1020",São João do Rio Vermelho,-27.50339126586914,-48.41279602050781,Espaço gourmet na área comum; Churrasqueira
https://www.quintoandar.com.br/condominio/rua-martinho-de-haro-399-ingleses-do-rio-vermelho-florianopolis-k27sg64zgp,"Condomínio em Rua Martinho de Haro, 399","Rua Martinho de Haro, 399",Ingleses,-27.429397583007812,-48.40230941772461,Vaga de garagem acessível; Corrimão; Churrasqueira
https://www.quintoandar.com.br/condominio/rua-do-kalifa-406-canasvieiras-florianopolis-drrsn72exd,"Condomínio em Rua do Kalifa, 406","Rua do Kalifa, 406",Canasvieiras,-27.42924690246582,-48.452083587646484,Churrasqueira; Elevador; Vaga de garagem acessível; Corrimão
https://www.quintoandar.com.br/condominio/estrada-haroldo-soares-glavan-55-cacupe-florianopolis-knzsye0wgk,"Condomínio em Estrada Haroldo Soares Glavan, 55","Estrada Haroldo Soares Glavan, 55",Saco Grande,-27.53580093383789,-48.511043548583984,Corrimão; Piso tátil; Vaga de garagem acessível; Rampas de acesso; Elevador; Piscina; Área verde; Academia; Salão de festas; Portaria 24h
https://www.quintoandar.com.br/condominio/porto-dos-corais-abraao-florianopolis-rdyos869ok,Condomínio Porto dos Corais,"Rua Silvio Possobon, 70",Abraão,-27.607351303100586,-48.59371566772461,Salão de jogos; Elevador; Academia; Brinquedoteca; Churrasqueira; Vaga de garagem acessível; Salão de festas; Playground; Piscina; Gás encanado; Espaço gourmet na área comum; Portaria 24h
https://www.quintoandar.com.br/condominio/marco-polo-cachoeira-do-bom-jesus-florianopolis-jdjrsnnzrk,Condomínio Marco Polo,"Rua Eduardo Rosa, 161",Cachoeira do Bom Jesus,-27.425325393676758,-48.4427375793457,Piscina; Elevador; Gás encanado; Churrasqueira; Portaria 24h
https://www.quintoandar.com.br/condominio/orquideas-cachoeira-do-bom-jesus-florianopolis-4pxnsrrv6d,Condomínio Orquídeas,"Rua do Ipê da Várzea, 172",Cachoeira do Bom Jesus,-27.423471450805664,-48.4239616394043,Churrasqueira; Corrimão; Elevador; Vaga de garagem acessível; Salão de festas
https://www.quintoandar.com.br/condominio/residencial-maria-cristina-ingleses-do-rio-vermelho-florianopolis-ek99sreq6k,Residencial Maria Cristina,"Servidão Maria de Oliveira Nunes, 114",Santinho,-27.4484806060791,-48.378936767578125,Churrasqueira; Vaga de garagem acessível; Gás encanado; Elevador; Piso tátil; Corrimão; Rampas de acesso; Espaço gourmet na área comum
https://www.quintoandar.com.br/condominio/fontana-de-trevi-coqueiros-florianopolis-9p18s7q8rk,Condomínio Fontana de Trevi,"Rua Jaú Guedes da Fonseca, 175",Coqueiros,-27.60587501525879,-48.575599670410156,Gás encanado; Elevador; Piscina; Salão de festas; Churrasqueira
https://www.quintoandar.com.br/condominio/rua-martinho-de-haro-1125-ingleses-do-rio-vermelho-florianopolis-1d47szynod,"Condomínio em Rua Martinho de Haro, 1125","Rua Martinho de Haro, 1125",Ingleses,-27.42818260192871,-48.40775680541992,Corrimão; Churrasqueira; Vaga de garagem acessível; Elevador; Brinquedoteca; Espaço gourmet na área comum; Salão de festas; Salão de jogos; Gás encanado; Playground
https://www.quintoandar.com.br/condominio/edificio-bougainvillea-centro-florianopolis-9pm8snn9ok,Edifício Bougainvillea,"Rua Felipe Schmidt, 752",Centro,-27.593582153320312,-48.55644226074219,Vaga de garagem acessível; Corrimão; Rampas de acesso; Elevador; Piso tátil; Gás encanado; Salão de festas; Portaria 24h
https://www.quintoandar.com.br/condominio/rua-bocaiuva-1820-centro-florianopolis-9d37s6g54p,"Condomínio em Rua Bocaiúva, 1820","Rua Bocaiúva, 1820",Centro,-27.587284088134766,-48.550445556640625,Espaço gourmet na área comum; Playground; Elevador; Gás encanado; Quadra esportiva; Salão de festas; Portaria 24h
https://www.quintoandar.com.br/condominio/edificio-pedro-i-centro-florianopolis-wdw2sxznqd,Edifício Pedro I,"Rua Francisco Tolentino, 800",Centro,-27.594755172729492,-48.557369232177734,Elevador; Vaga de garagem acessível; Salão de festas; Corrimão; Portaria 24h
https://www.quintoandar.com.br/condominio/jorge-daux-centro-florianopolis-0d71s3w0od,Condomínio Jorge Daux,"Rua dos Ilhéus, 118",Centro,-27.59608268737793,-48.548152923583984,Elevador; Gás encanado
https://www.quintoandar.com.br/condominio/via-verde-trindade-florianopolis-k27sgglljp,Condomínio Via Verde,"Servidão Abílio Silva, 270",Trindade,-27.585954666137695,-48.5219841003418,Elevador; Rampas de acesso; Espaço gourmet na área comum; Vaga de garagem acessível; Gás encanado; Corrimão; Piso tátil; Salão de festas
https://www.quintoandar.com.br/condominio/residencial-luana-corrego-grande-florianopolis-rdyos6jelk,Residencial Luana,"Rua Nicolau Antônio Deschamps, 115",Córrego Grande,-27.60304832458496,-48.50468826293945,Vaga de garagem acessível; Piso tátil; Elevador; Corrimão; Playground; Churrasqueira; Academia; Sauna; Piscina; Brinquedoteca; Salão de festas; Rampas de acesso; Portaria 24h
https://www.quintoandar.com.br/condominio/nautillus-trindade-florianopolis-xplgs05q1k,Condomínio Nautillus,"Rua Lauro Linhares, 191",Trindade,-27.58120346069336,-48.52647399902344,Elevador; Gás encanado; Sauna; Salão de festas; Espaço gourmet na área comum; Piso tátil; Corrimão; Academia; Playground; Rampas de acesso; Vaga de garagem acessível; Portaria 24h
https://www.quintoandar.com.br/condominio/rua-esteves-junior-265-centro-florianopolis-1d47sqmx8d,"Condomínio em Rua Esteves Júnior, 265","Rua Esteves Júnior, 265",Centro,-27.592191696166992,-48.55278015136719,Espaço gourmet na área comum; Gás encanado; Vaga de garagem acessível; Portaria 24h
https://www.quintoandar.com.br/condominio/plaza-di-monaco-trindade-florianopolis-ek99s0462k,Condomínio Plaza di Mônaco,"Avenida Madre Benvenuta, 388",Trindade,-27.592496871948242,-48.51765823364258,Salão de festas; Churrasqueira; Quadra esportiva; Academia; Elevador; Espaço gourmet na área comum; Playground; Piscina; Gás encanado; Portaria 24h
https://www.quintoandar.com.br/condominio/villas-do-campeche-campeche-leste-florianopolis-ek99svyy1k,Condomínio Villas do Campeche,"Rua das Corticeiras, 81",Campeche,-27.68903350830078,-48.484195709228516,Playground; Academia; Elevador; Vaga de garagem acessível; Churrasqueira; Salão de festas; Área verde; Quadra esportiva; Piscina; Gás encanado; Espaço gourmet na área comum; Corrimão; Rampas de acesso; Brinquedoteca; Piso tátil; Portaria 24h
https://www.quintoandar.com.br/condominio/residencial-rafaella-ingleses-do-rio-vermelho-florianopolis-d37s5m0qlp,Residencial Rafaella,"Rua Quadrangular, 93",Ingleses,-27.450496673583984,-48.40349197387695,Churrasqueira; Rampas de acesso; Elevador; Corrimão; Piso tátil; Vaga de garagem acessível
https://www.quintoandar.com.br/condominio/servidao-professora-rosemari-e-nunes-490-ingleses-do-rio-vermelho-florianopolis-rp0gsxem5k,"Condomínio em Servidão Professora Rosemari E. Nunes, 490","Servidão Professora Rosemari E. Nunes, 490",Ingleses,-27.452587127685547,-48.40898513793945,Corrimão; Vaga de garagem acessível; Churrasqueira
https://www.quintoandar.com.br/condominio/rua-laurindo-januario-da-silveira-5530-porto-da-lagoa-florianopolis-8kojsz941d,"Condomínio em Rua Laurindo Januário da Silveira, 5530","Rua Laurindo Januário da Silveira, 5530",Porto da Lagoa,-27.63278579711914,-48.47217559814453,Piso tátil; Gás encanado; Churrasqueira; Área verde; Rampas de acesso; Vaga de garagem acessível; Lavanderia no prédio; Espaço gourmet na área comum; Corrimão
https://www.quintoandar.com.br/condominio/athenas-park-pantanal-florianopolis-ek99sexxok,Condomínio Athenas Park,"Rua Deputado Antônio Edu Vieira, 0",Pantanal,-27.613508224487305,-48.526939392089844,Elevador; Churrasqueira; Salão de festas; Portaria 24h
https://www.quintoandar.com.br/condominio/residencial-feijo-vieira-saco-dos-limoes-florianopolis-ed5zs4531d,Residencial Feijó Vieira,"Rua João Motta Espezim, 859",Saco dos Limões,-27.609071731567383,-48.531856536865234,Playground; Quadra esportiva; Vaga de garagem acessível; Salão de festas; Portaria 24h
https://www.quintoandar.com.br/condominio/vitoria-ingleses-do-rio-vermelho-florianopolis-6knzsr7e3k,Condomínio Vitória,"Servidão Luís Flor Francisco, 605",Ingleses,-27.456157684326172,-48.3989143371582,Corrimão; Churrasqueira; Vaga de garagem acessível
https://www.quintoandar.com.br/condominio/rua-doralice-ramos-pinho-55-jardim-cidade-de-florianopolis-sao-jose-d5zsomvmxd,"Condomínio em Rua Doralice Ramos Pinho, 55","Rua Doralice Ramos Pinho, 55",Cidade Jardim de Florianópolis,-27.563745498657227,-48.61579895019531,Rampas de acesso; Vaga de garagem acessível; Elevador; Piso tátil
https://www.quintoandar.com.br/condominio/rodovia-armando-calil-bulos-6540-ingleses-do-rio-vermelho-florianopolis-plgsqj032k,"Condomínio em Rodovia Armando Calil Bulos, 6540","Rodovia Armando Calil Bulos, 6540",Ingleses,-27.437246322631836,-48.39663314819336,Salão de festas; Piso tátil; Playground; Elevador; Vaga de garagem acessível; Piscina; Churrasqueira; Rampas de acesso; Corrimão
https://www.quintoandar.com.br/condominio/copacabana-ingleses-do-rio-vermelho-florianopolis-p0gsg5vzvk,Condomínio Copacabana,"Rua Abel Álvares Cabral Júnior, 250",Ingleses,-27.4233341217041,-48.40394592285156,Elevador; Vaga de garagem acessível; Playground; Churrasqueira; Piscina; Salão de festas; Rampas de acesso
https://www.quintoandar.com.br/condominio/servidao-do-jornalista-34-ingleses-norte-florianopolis-drrsnolqmd,"Condomínio em Servidão do Jornalista, 34","Servidão do Jornalista, 34",Santinho,-27.44978141784668,-48.37812423706055,Rampas de acesso; Vaga de garagem acessível
https://www.quintoandar.com.br/condominio/rua-martinho-de-haro-450-ingleses-do-rio-vermelho-florianopolis-dv7sglgnrd,"Condomínio em Rua Martinho de Haro, 450","Rua Martinho de Haro, 450",Ingleses,-27.428979873657227,-48.40273666381836,Churrasqueira; Vaga de garagem acessível; Corrimão
https://www.quintoandar.com.br/condominio/domus-cachoeira-cachoeira-do-bom-jesus-florianopolis-rdyosj6qgk,Condomínio Domus Cachoeira,"Rua Leonel Pereira, 625",Cachoeira do Bom Jesus,-27.423728942871094,-48.428226470947266,Churrasqueira; Salão de festas; Vaga de garagem acessível; Playground; Rampas de acesso
https://www.quintoandar.com.br/condominio/chacara-rio-jordao-ingleses-do-rio-vermelho-florianopolis-ek99sxxggk,Condomínio Chácara Rio Jordão,"Estrada Dário Manoel Cardoso, 222",Ingleses,-27.44144630432129,-48.39718246459961,Elevador; Piscina; Vaga de garagem acessível; Corrimão; Playground; Salão de festas; Brinquedoteca; Lavanderia no prédio; Academia; Piso tátil; Rampas de acesso; Sauna; Quadra esportiva; Área verde; Salão de jogos; Churrasqueira
https://www.quintoandar.com.br/condominio/souto-moritz-home-coqueiros-florianopolis-vk87s63v4p,Condomínio Souto Moritz Home,"Rua Professor Bayer Filho, 60",Coqueiros,-27.608335494995117,-48.57935333251953,Vaga de garagem acessível; Elevador; Rampas de acesso; Lavanderia no prédio; Piso tátil; Salão de festas; Academia; Corrimão; Churrasqueira; Gás encanado; Portaria 24h
https://www.quintoandar.com.br/condominio/conjunto-residencial-marcelina-capoeiras-florianopolis-jdjrs4n75k,Condomínio Conjunto Residencial Marcelina,"Rua Kurt Rantour, 313",Capoeiras,-27.598379135131836,-48.58311462402344,Espaço gourmet na área comum; Gás encanado; Vaga de garagem acessível; Corrimão
https://www.quintoandar.com.br/condominio/rua-almirante-lamego-1090-centro-florianopolis-d5zsogjg4d,"Condomínio em Rua Almirante Lamego, 1090","Rua Almirante Lamego, 1090",Centro,-27.589153289794922,-48.557254791259766,Corrimão; Salão de festas; Piscina; Vaga de garagem acessível; Elevador; Churrasqueira; Portaria 24h
https://www.quintoandar.com.br/condominio/residencial-ivo-silveira-capoeiras-florianopolis-knzsy1gl7k,Residencial Ivo Silveira,"Avenida Governador Ivo Silveira, 1413",Capoeiras,-27.600250244140625,-48.580997467041016,Área verde; Quadra esportiva; Playground; Vaga de garagem acessível; Corrimão; Salão de festas; Portaria 24h
https://www.quintoandar.com.br/condominio/residencial-villa-mariana-itacorubi-florianopolis-wdw2szr4jd,Residencial Villa Mariana,"Rua Pastor William Richard Schisler Filho, 655",Itacorubi,-27.575143814086914,-48.50950622558594,Área verde; Rampas de acesso; Academia; Salão de jogos; Quadra esportiva; Corrimão; Piso tátil; Playground; Elevador; Vaga de garagem acessível; Piscina; Gás encanado; Espaço gourmet na área comum; Salão de festas; Portaria 24h
https://www.quintoandar.com.br/condominio/bairro-de-fatima-canto-florianopolis-ek99sxo81k,Condomínio Bairro de Fatima,"Rua Professora Antonieta de Barros, 732",Canto,-27.589536666870117,-48.58560562133789,Playground; Churrasqueira; Quadra esportiva; Salão de festas; Gás encanado
https://www.quintoandar.com.br/condominio/edificio-trindade-trindade-florianopolis-d5zsog75zd,Edifício Trindade,"Rua Lauro Linhares, 1730",Trindade,-27.594221115112305,-48.521575927734375,Área verde; Vaga de garagem acessível; Piso tátil; Playground; Corrimão
https://www.quintoandar.com.br/condominio/rua-florenza-75-corrego-grande-florianopolis-4pxns62grd,"Condomínio em Rua Florenza, 75","Rua Florenza, 75",Córrego Grande,-27.602794647216797,-48.50016784667969,Área verde; Rampas de acesso; Quadra esportiva; Churrasqueira; Elevador; Vaga de garagem acessível; Salão de festas; Piso tátil; Corrimão
https://www.quintoandar.com.br/condominio/vivendas-das-palmeiras-canto-da-lagoa-florianopolis-0d71sqj48d,Condomínio Vivendas das Palmeiras,"Rua Laurindo Januário da Silveira, 3203",Canto da Lagoa,-27.621936798095703,-48.483219146728516,Gás encanado; Churrasqueira; Playground; Quadra esportiva; Salão de festas; Piscina; Lavanderia no prédio; Espaço gourmet na área comum; Área verde; Vaga de garagem acessível; Portaria 24h
https://www.quintoandar.com.br/condominio/residencial-e-comercial-studio-navona-pantanal-florianopolis-ek99szjvqk,Residencial e Comercial Studio Navona,"Rua Maria Eduarda, 120",Pantanal,-27.606901168823242,-48.517677307128906,Elevador; Salão de jogos; Corrimão; Churrasqueira; Rampas de acesso; Vaga de garagem acessível; Piso tátil; Salão de festas
https://www.quintoandar.com.br/condominio/residencial-doble-encanto-lagoa-da-conceicao-florianopolis-ndv7sx3wrd,Residencial Doble Encanto,"Rua Laurindo Januário da Silveira, 947",Lagoa da Conceição,-27.60485076904297,-48.47998046875,Elevador; Corrimão; Rampas de acesso; Churrasqueira; Vaga de garagem acessível
https://www.quintoandar.com.br/condominio/oscar-boechat-lagoa-da-conceicao-florianopolis-drrsn6l6gd,Condomínio Oscar Boechat,"Rua Vereador Osni Ortiga, 2883",Porto da Lagoa,-27.629846572875977,-48.47235870361328,Churrasqueira; Piscina; Vaga de garagem acessível; Área verde; Portaria 24h
https://www.quintoandar.com.br/condominio/geneve-lausanne-agronomica-florianopolis-jdjrsz9n6k,Condomínio Geneve Lausanne,"Rua Frei Caneca, 160",Agronômica,-27.58185386657715,-48.543479919433594,Rampas de acesso; Elevador; Piscina; Piso tátil; Academia; Salão de festas; Espaço gourmet na área comum; Vaga de garagem acessível; Corrimão; Gás encanado; Quadra esportiva; Portaria 24h
https://www.quintoandar.com.br/condominio/rua-arco-iris-622-carianos-florianopolis-d5zsxx4yrd,"Condomínio em Rua Arco Íris, 622","Rua Arco Íris, 622",Ribeirão da Ilha Ressacada,-27.669986724853516,-48.52829360961914,
https://www.quintoandar.com.br/condominio/isola-ravenna-ingleses-do-rio-vermelho-florianopolis-ndv7slq9ed,Condomínio Isola Ravenna,"Rua dos Canudos, 146",Ingleses,-27.42691993713379,-48.40191650390625,Vaga de garagem acessível; Playground; Corrimão; Brinquedoteca; Elevador; Piscina; Churrasqueira; Salão de festas; Rampas de acesso; Gás encanado; Portaria 24h
https://www.quintoandar.com.br/condominio/residencial-ingleses-norte-florianopolis-plgsqmrjqk,Residencial,"Rua Laurindo Elias de Oliveira, 53",Ingleses,-27.442710876464844,-48.4089241027832,Churrasqueira; Vaga de garagem acessível; Corrimão
https://www.quintoandar.com.br/condominio/servidao-antonio-dos-santos-lisboa-94-ingleses-norte-florianopolis-knzsxxl58k,"Condomínio em Servidão Antônio dos Santos Lisboa, 94","Servidão Antônio dos Santos Lisboa, 94",Ingleses,-27.452547073364258,-48.39795684814453,Corrimão; Vaga de garagem acessível
https://www.quintoandar.com.br/condominio/phoenix-itaguacu-florianopolis-9pm8s767lk,Condomínio Phoenix,"Rua Bias Peixoto, 70",Abraão,-27.607696533203125,-48.591251373291016,Corrimão; Elevador; Playground; Rampas de acesso; Churrasqueira; Gás encanado; Salão de festas; Espaço gourmet na área comum; Piso tátil
https://www.quintoandar.com.br/condominio/edificio-oxford-coqueiros-florianopolis-ndv7s85xnd,Edifício Oxford,"Rua Doutor Abel Capela, 541",Coqueiros,-27.604312896728516,-48.5819206237793,Elevador; Salão de festas; Gás encanado; Espaço gourmet na área comum; Rampas de acesso; Vaga de garagem acessível; Corrimão
https://www.quintoandar.com.br/condominio/servidao-ana-cardoso-445-sao-joao-do-rio-vermelho-florianopolis-keys5g8e9p,"Condomínio em Servidão Ana Cardoso, 445","Servidão Ana Cardoso, 445",São João do Rio Vermelho,-27.49335289001465,-48.415828704833984,Salão de festas; Piscina; Vaga de garagem acessível
https://www.quintoandar.com.br/condominio/avenida-jornalista-rubens-de-arruda-ramos-2508-centro-florianopolis-0d71sv69od,"Condomínio em Avenida Jornalista Rubéns de Arruda Ramos, 2508","Avenida Jornalista Rubéns de Arruda Ramos, 2508",Centro,-27.58460807800293,-48.546043395996094,Academia; Salão de festas; Elevador; Corrimão; Playground; Vaga de garagem acessível; Espaço gourmet na área comum; Gás encanado; Portaria 24h
https://www.quintoandar.com.br/condominio/chateau-de-valencay-canto-florianopolis-pxnsoljlmd,Condomínio Chateau de Valençay,"Rua Tereza Cristina, 122",Canto,-27.58432960510254,-48.582279205322266,Elevador; Salão de festas; Vaga de garagem acessível; Portaria 24h
https://www.quintoandar.com.br/condominio/henrique-deucher-estreito-florianopolis-ndv7smv2nd,Condomínio Henrique Deucher,"Rua Santos Saraiva, 521",Estreito,-27.591720581054688,-48.57846450805664,Playground; Piscina; Gás encanado; Academia; Elevador; Churrasqueira; Salão de festas; Portaria 24h
https://www.quintoandar.com.br/condominio/dalva-schutz-centro-florianopolis-9p18s123gk,Condomínio Dalva Schutz,"Rua Almirante Lamego, 1240",Centro,-27.588436126708984,-48.555755615234375,Piscina; Elevador; Salão de festas; Gás encanado; Churrasqueira; Espaço gourmet na área comum; Academia; Portaria 24h
https://www.quintoandar.com.br/condominio/vila-das-palmeiras-ii-ingleses-norte-florianopolis-9pm8slz61k,Condomínio Vila das Palmeiras II,"Rua Lázaro de Oliveira Souza, 1065",Ingleses,-27.41826820373535,-48.40768051147461,Playground; Elevador; Churrasqueira; Vaga de garagem acessível; Piscina; Academia; Espaço gourmet na área comum; Gás encanado; Salão de festas; Portaria 24h
https://www.quintoandar.com.br/condominio/servidao-beira-rio-553-sao-joao-do-rio-vermelho-florianopolis-pqmsmm7yed,"Condomínio em Servidão Beira Rio, 553","Servidão Beira Rio, 553",São João do Rio Vermelho,-27.474319458007812,-48.41202926635742,Corrimão
https://www.quintoandar.com.br/condominio/saint-exupery-campeche-leste-florianopolis-9p18smg5qk,Condomínio Saint Exupery,"Rua da Capela, 179",Campeche,-27.68120002746582,-48.490684509277344,Academia; Salão de festas; Elevador; Quadra esportiva; Área verde; Churrasqueira; Piscina; Piso tátil; Vaga de garagem acessível; Corrimão; Rampas de acesso; Playground; Portaria 24h
https://www.quintoandar.com.br/condominio/edificio-carlos-talouis-centro-florianopolis-9d37s4nlqp,Edifício Carlos Talouis,"Rua Tenente Silveira, 324",Centro,-27.595027923583984,-48.55241012573242,Elevador; Salão de festas; Rampas de acesso; Portaria 24h
https://www.quintoandar.com.br/condominio/edificio-sabrina-centro-florianopolis-keys53z78p,Edificio Sabrina,"Rua José Jaques, 163",Centro,-27.59577751159668,-48.54560470581055,Piso tátil; Elevador; Playground; Quadra esportiva; Rampas de acesso; Corrimão; Salão de festas
https://www.quintoandar.com.br/condominio/jardim-verde-vale-itacorubi-florianopolis-vk87s4my8p,Condomínio Jardim Verde Vale,"Rodovia Admar Gonzaga, 2025",Itacorubi,-27.58678436279297,-48.49824142456055,Área verde; Vaga de garagem acessível; Playground; Portaria 24h
https://www.quintoandar.com.br/condominio/duo-residence-centro-florianopolis-d5zsooz7wd,Condomínio Duo Residence,"Rua Frei Evaristo, 43",Centro,-27.589540481567383,-48.54461669921875,Corrimão; Salão de jogos; Espaço gourmet na área comum; Piscina; Rampas de acesso; Elevador; Piso tátil; Gás encanado; Brinquedoteca; Vaga de garagem acessível; Salão de festas; Playground; Academia
https://www.quintoandar.com.br/condominio/rua-felipe-schmidt-573-centro-florianopolis-9dzqsy5mgd,"Condomínio em Rua Felipe Schmidt, 573","Rua Felipe Schmidt, 573",Centro,-27.594749450683594,-48.55525207519531,Elevador; Corrimão; Vaga de garagem acessível; Portaria 24h
https://www.quintoandar.com.br/condominio/residencial-palazzo-di-venezia-corrego-grande-florianopolis-7kg3svgn8p,Residencial Palazzo Di Venezia,"Rua João Pio Duarte Silva, 1450",Córrego Grande,-27.601364135742188,-48.50312042236328,Piscina; Elevador; Playground; Quadra esportiva; Portaria 24h
https://www.quintoandar.com.br/condominio/plaza-cadiz-corrego-grande-florianopolis-vk87semw7p,Condomínio Plaza Cádiz,"Rua Mediterrâneo, 242",Córrego Grande,-27.603288650512695,-48.50152587890625,Vaga de garagem acessível; Elevador; Corrimão; Salão de festas; Churrasqueira; Gás encanado
https://www.quintoandar.com.br/condominio/servidao-luis-flor-francisco-429-ingleses-do-rio-vermelho-florianopolis-ek99smm6qk,"Condomínio em Servidão Luís Flor Francisco, 429","Servidão Luís Flor Francisco, 429",Ingleses,-27.456422805786133,-48.400787353515625,Vaga de garagem acessível; Churrasqueira; Corrimão; Gás encanado; Espaço gourmet na área comum
https://www.quintoandar.com.br/condominio/georges-de-la-tour-lagoa-pequena-florianopolis-rdyos1m1xk,Condomínio Georges de Lá Tour,"Rua Linda Estrela do Mar, 66",Rio Tavares,-27.65480613708496,-48.47396469116211,Elevador; Vaga de garagem acessível; Churrasqueira; Espaço gourmet na área comum; Salão de festas; Piso tátil; Gás encanado; Corrimão; Rampas de acesso
https://www.quintoandar.com.br/condominio/ed-scarlet-trindade-florianopolis-d71s6ln1vd,Condomínio ED. Scarlet,"Rua Desembargador Vítor Lima, 594",Trindade,-27.598609924316406,-48.52499008178711,Elevador; Vaga de garagem acessível; Piso tátil; Salão de festas; Rampas de acesso; Lavanderia no prédio
https://www.quintoandar.com.br/condominio/servidao-maura-de-abreu-nunes-555-sao-joao-do-rio-vermelho-florianopolis-9d37ser9gp,"Condomínio em Servidão Maura de Abreu Nunes, 555","Servidão Maura de Abreu Nunes, 555",São João do Rio Vermelho,-27.495342254638672,-48.41478729248047,Corrimão; Vaga de garagem acessível
https://www.quintoandar.com.br/condominio/servidao-manoel-nestor-marinho-368-corrego-grande-florianopolis-jdjrs9nzjk,"Condomínio em Servidão Manoel Nestor Marinho, 368","Servidão Manoel Nestor Marinho, 368",Ingleses,-27.601978302001953,-48.508174896240234,Corrimão; Vaga de garagem acessível; Churrasqueira
https://www.quintoandar.com.br/condominio/rua-jornalista-haroldo-callado-305-jurere-florianopolis-k99s1y70mk,"Condomínio em Rua Jornalista Haroldo Callado, 305","Rua Jornalista Haroldo Callado, 305",Jurerê,-27.4381046295166,-48.483619689941406,Elevador; Piscina; Corrimão; Área verde; Salão de festas; Sauna; Piso tátil; Lavanderia no prédio; Rampas de acesso
https://www.quintoandar.com.br/condominio/residencial-souza-ingleses-do-rio-vermelho-florianopolis-pm8s5qz6jk,Residencial Souza,"Servidão Nossa Senhora Aparecida, 174",Ingleses,-27.436708450317383,-48.40211486816406,Churrasqueira; Vaga de garagem acessível; Corrimão; Elevador
https://www.quintoandar.com.br/condominio/residencial-rei-artur-ingleses-do-rio-vermelho-florianopolis-k99s05z7wk,Residencial Rei Artur,"Rua Luiz Elias Daux, 933",Ingleses,-27.43462562561035,-48.40316390991211,Área verde; Churrasqueira; Corrimão; Elevador; Salão de festas; Piso tátil; Academia; Vaga de garagem acessível; Rampas de acesso; Piscina
https://www.quintoandar.com.br/condominio/aguas-de-jurere-jurere-florianopolis-ek99s60vwk,Condomínio Águas de Jurerê,"Rua Dario João de Souza, 101",Jurerê,-27.44579315185547,-48.48628234863281,Elevador; Piscina; Vaga de garagem acessível; Churrasqueira; Área verde; Salão de jogos; Corrimão; Academia; Piso tátil; Brinquedoteca; Salão de festas; Sauna; Rampas de acesso; Espaço gourmet na área comum; Gás encanado; Playground; Portaria 24h
https://www.quintoandar.com.br/condominio/rodovia-tertuliano-brito-xavier-1520-canasvieiras-florianopolis-wdw2sylz7d,"Condomínio em Rodovia Tertuliano Brito Xavier, 1520","Rodovia Tertuliano Brito Xavier, 1520",Canasvieiras,-27.431564331054688,-48.470333099365234,Corrimão; Vaga de garagem acessível; Gás encanado; Área verde; Espaço gourmet na área comum
https://www.quintoandar.com.br/condominio/rodovia-tertuliano-brito-xavier-3308-canasvieiras-florianopolis-9p18s3gqzk,"Condomínio em Rodovia Tertuliano Brito Xavier, 3308","Rodovia Tertuliano Brito Xavier, 3308",Jurerê,-27.436677932739258,-48.479671478271484,Salão de festas; Elevador; Piscina; Churrasqueira; Corrimão; Academia; Vaga de garagem acessível; Piso tátil; Área verde; Rampas de acesso; Sauna
https://www.quintoandar.com.br/condominio/rua-manoel-pedro-vieira-810-morro-das-pedras-florianopolis-9p18s2789k,"Condomínio em Rua Manoel Pedro Vieira, 810","Rua Manoel Pedro Vieira, 810",Morro das Pedras,-27.710437774658203,-48.50257873535156,Piscina; Área verde; Vaga de garagem acessível; Quadra esportiva; Salão de festas; Churrasqueira; Playground; Portaria 24h
https://www.quintoandar.com.br/condominio/residencial-danubio-canto-florianopolis-d5zso13zvd,Residencial Danubio,"Rua Arnoldo Cândido Raulino, 98",Canto,-27.586271286010742,-48.58311462402344,Corrimão; Vaga de garagem acessível
https://www.quintoandar.com.br/condominio/vitor-konder-centro-florianopolis-kg3s80zvep,Condomínio Vitor Konder,"Rua Vítor Konder, 142",Centro,-27.588918685913086,-48.544830322265625,Piso tátil; Elevador; Vaga de garagem acessível; Corrimão; Salão de festas
https://www.quintoandar.com.br/condominio/rua-florianopolis-215-boa-vista-novo-hamburgo-d71s68vz5d,"Condomínio em Rua Florianópolis, 215","Rua Florianópolis, 215",Boa Vista,-29.69508934020996,-51.122703552246094,Churrasqueira; Área verde
https://www.quintoandar.com.br/condominio/solar-de-kastellorizon-centro-florianopolis-ed5zsj1nwd,Condomínio Solar de Kastellorizon,"Avenida Professor Othon Gama D'Eça, 975",Centro,-27.587055206298828,-48.55175018310547,Elevador; Salão de festas; Gás encanado; Espaço gourmet na área comum; Portaria 24h
https://www.quintoandar.com.br/condominio/floraville-itacorubi-florianopolis-9pm8slrg9k,Condomínio Floraville,"Rodovia Amaro Antônio Viêira, 2108",Itacorubi,-27.584054946899414,-48.49971008300781,Churrasqueira; Rampas de acesso; Piso tátil; Elevador; Salão de festas; Corrimão; Vaga de garagem acessível; Gás encanado
https://www.quintoandar.com.br/condominio/carlos-a-caminha-pantanal-florianopolis-d37sgg8v2p,Condomínio Carlos A. Caminha,"Rua Deputado Antônio Edu Vieira, 1580",Pantanal,-27.60318946838379,-48.516910552978516,Portaria 24h
https://www.quintoandar.com.br/condominio/residencial-quatro-ventos-pantanal-florianopolis-p18s0lj7ek,Residencial Quatro Ventos,"Rua Rosa, 119",Pantanal,-27.605472564697266,-48.51683044433594,Salão de festas; Piso tátil; Área verde; Elevador; Corrimão; Rampas de acesso; Vaga de garagem acessível; Churrasqueira
https://www.quintoandar.com.br/condominio/santa-barbara-centro-florianopolis-9p18s6x5lk,Condomínio Santa Bárbara,"Rua Tenente Silveira, 834",Centro,-27.59264373779297,-48.55649185180664,Espaço gourmet na área comum; Gás encanado; Elevador; Playground; Churrasqueira; Salão de festas; Portaria 24h
https://www.quintoandar.com.br/condominio/leblon-centro-florianopolis-pm8sq85elk,Condomínio Leblon,"Rua Jade Magalhães, 25",Centro,-27.586584091186523,-48.54222106933594,Vaga de garagem acessível; Playground; Área verde; Corrimão
https://www.quintoandar.com.br/condominio/rua-manoel-de-oliveira-ramos-802-estreito-florianopolis-d47s4qzqgd,"Condomínio em Rua Manoel de Oliveira Ramos, 802","Rua Manoel de Oliveira Ramos, 802",Estreito,-27.590137481689453,-48.58097457885742,Elevador; Rampas de acesso; Academia; Vaga de garagem acessível; Piscina; Salão de festas; Corrimão; Piso tátil; Churrasqueira; Portaria 24h
https://www.quintoandar.com.br/condominio/rua-lauro-linhares-876-trindade-florianopolis-4pxns82eed,"Condomínio em Rua Lauro Linhares, 876","Rua Lauro Linhares, 876",Trindade,-27.58707046508789,-48.52460479736328,Churrasqueira; Salão de festas; Corrimão; Vaga de garagem acessível; Rampas de acesso
https://www.quintoandar.com.br/condominio/jardim-de-villandry-carvoeira-florianopolis-k99s16901k,Condomínio Jardim de Villandry,"Rua das Acácias, 45",Saco dos Limões,-27.604717254638672,-48.52470016479492,Vaga de garagem acessível; Playground; Salão de festas; Corrimão; Piso tátil; Área verde
https://www.quintoandar.com.br/condominio/novo-campeche-villas-rio-tavares-florianopolis-dyos99n90k,Condomínio Novo Campeche Villas,"Servidão Hipolito Bernardino Das Chagas, 359",Rio Tavares,-27.662382125854492,-48.483028411865234,Corrimão; Churrasqueira; Vaga de garagem acessível
https://www.quintoandar.com.br/condominio/rodovia-francisco-magno-vieira-4397-autodromo-florianopolis-d5zsoro63d,"Condomínio em Rodovia Francisco Magno Vieira, 4397","Rodovia Francisco Magno Vieira, 4397",Rio Tavares,-27.687171936035156,-48.51076126098633,Salão de festas; Vaga de garagem acessível; Piso tátil; Elevador; Área verde; Piscina; Corrimão; Churrasqueira; Rampas de acesso
https://www.quintoandar.com.br/condominio/servidao-dona-vitorina-lopes-189-morro-das-pedras-florianopolis-dw2s9rn8wd,"Condomínio em Servidão Dona Vitórina Lopes, 189","Servidão Dona Vitórina Lopes, 189",Campeche,-27.70414161682129,-48.505218505859375,Vaga de garagem acessível; Churrasqueira; Corrimão; Piso tátil
https://www.quintoandar.com.br/condominio/aguas-do-atlantico-ingleses-norte-florianopolis-k99s053z4k,Condomínio Águas do Atlântico,"Rua Lázaro de Oliveira Souza, 701",Ingleses,-27.42160987854004,-48.40540313720703,Corrimão; Piso tátil; Elevador; Salão de festas; Piscina; Churrasqueira; Vaga de garagem acessível; Rampas de acesso
https://www.quintoandar.com.br/condominio/rua-madre-maria-villac-1223-canasvieiras-florianopolis-9pm8s738qk,"Condomínio em Rua Madre Maria Villac, 1223","Rua Madre Maria Villac, 1223",Canasvieiras,-27.428518295288086,-48.45882034301758,Corrimão; Espaço gourmet na área comum; Gás encanado; Piso tátil; Portaria 24h
https://www.quintoandar.com.br/condominio/servidao-caminho-das-orquideas-358-sao-joao-do-rio-vermelho-florianopolis-dzqsngy1ed,"Condomínio em Servidão Caminho das Orquideas, 358","Servidão Caminho das Orquideas, 358",São João do Rio Vermelho,-27.48172950744629,-48.402183532714844,Vaga de garagem acessível; Lavanderia no prédio; Área verde; Corrimão
https://www.quintoandar.com.br/condominio/jay-luxury-jurere-internacional-florianopolis-4pxnsz8vxd,Condomínio Jay Luxury,"Avenida dos Búzios, 1136",Jurerê,-27.440208435058594,-48.49455261230469,Vaga de garagem acessível; Salão de festas; Elevador; Academia; Piso tátil; Espaço gourmet na área comum; Rampas de acesso; Piscina; Gás encanado; Corrimão; Portaria 24h
https://www.quintoandar.com.br/condominio/edificio-havana-jurere-leste-florianopolis-ndv7s3r7md,Edifício Havana,"Rua Deputado Paulo Preis, 590",Jurerê,-27.445011138916016,-48.4881706237793,Elevador; Churrasqueira; Gás encanado; Salão de festas; Piscina
https://www.quintoandar.com.br/condominio/rodovia-jornalista-manoel-de-menezes-3293-barra-da-lagoa-florianopolis-9p6js4mg1k,"Condomínio em Rodovia Jornalista Manoel de Menezes, 3293","Rodovia Jornalista Manoel de Menezes, 3293",Barra da Lagoa,-27.58402442932129,-48.436256408691406,Gás encanado; Área verde; Espaço gourmet na área comum; Quadra esportiva; Playground; Salão de festas; Lavanderia no prédio; Churrasqueira
https://www.quintoandar.com.br/condominio/solimar-centro-florianopolis-3keysgyxgp,Condomínio Solimar,"Avenida Professor Othon Gama D'Eça, 705",Centro,-27.589353561401367,-48.55184555053711,Elevador; Gás encanado; Portaria 24h
https://www.quintoandar.com.br/condominio/servidao-manoel-reis-177-jardim-atlantico-florianopolis-pxnsox806d,"Condomínio em Servidão Manoel Reis, 177","Servidão Manoel Reis, 177",Jardim Atlântico,-27.576061248779297,-48.59223556518555,Churrasqueira; Rampas de acesso; Piscina; Piso tátil; Vaga de garagem acessível
https://www.quintoandar.com.br/condominio/rua-pedro-bunn-881-jardim-cidade-de-florianopolis-sao-jose-rdyos9j8jk,"Condomínio em Rua Pedro Bunn, 881","Rua Pedro Bunn, 881",Cidade Jardim de Florianópolis,-27.568252563476562,-48.619510650634766,Lavanderia no prédio
https://www.quintoandar.com.br/condominio/nex-smart-living-estreito-florianopolis-kojs2xeg9d,Condomínio NEX Smart Living,"Avenida Marinheiro Max Schramm, 2701",Jardim Atlântico,-27.579402923583984,-48.58914566040039,Elevador; Academia; Salão de festas; Corrimão; Brinquedoteca; Lavanderia no prédio; Salão de jogos; Rampas de acesso; Vaga de garagem acessível; Quadra esportiva; Piscina; Área verde; Playground; Portaria 24h
https://www.quintoandar.com.br/condominio/residencial-victoria-residence-cidade-jardim-de-florianopolis-sao-jose-jpqmsy3mrd,Residencial Victória Residence,"Rua Hidalgo Araújo, 1160",Cidade Jardim de Florianópolis,-27.569358825683594,-48.62342071533203,Academia; Salão de festas; Elevador; Churrasqueira; Playground; Quadra esportiva; Portaria 24h
https://www.quintoandar.com.br/condominio/avenida-beira-mar-norte-3660-centro-florianopolis-keys5yroxp,"Condomínio em Avenida Beira Mar Norte, 3660","Avenida Beira Mar Norte, 3660",Centro,-27.58552360534668,-48.550052642822266,Elevador; Salão de festas; Vaga de garagem acessível; Piso tátil; Corrimão; Churrasqueira; Piscina; Portaria 24h
https://www.quintoandar.com.br/condominio/residencial-sorbonne-trindade-florianopolis-1d47sm031d,Residencial Sorbonne,"Rua Sérgio Lopes Falcão, 185",Trindade,-27.590116500854492,-48.52024841308594,Piscina; Espaço gourmet na área comum; Churrasqueira; Elevador; Playground; Salão de festas; Gás encanado
https://www.quintoandar.com.br/condominio/rua-tereza-lopes-1365-campeche-florianopolis-2drrs0gv7d,"Condomínio em Rua Tereza Lopes, 1365","Rua Tereza Lopes, 1365",Campeche,-27.69431495666504,-48.49933624267578,Espaço gourmet na área comum; Gás encanado; Vaga de garagem acessível
https://www.quintoandar.com.br/condominio/itacorubi-ii-itacorubi-florianopolis-6knzsxw5gk,Condomínio Itacorubi II,"Rodovia Amaro Antônio Viêira, 2008",Itacorubi,-27.58342933654785,-48.5003662109375,Salão de festas; Churrasqueira; Playground; Espaço gourmet na área comum; Quadra esportiva; Lavanderia no prédio; Portaria 24h
https://www.quintoandar.com.br/condominio/rodovia-joao-gualberto-soares-4894-sao-joao-do-rio-vermelho-florianopolis-9p18s7xyqk,"Condomínio em Rodovia João Gualberto Soares, 4894","Rodovia João Gualberto Soares, 4894",São João do Rio Vermelho,-27.47669219970703,-48.4185791015625,Piscina; Churrasqueira; Vaga de garagem acessível
https://www.quintoandar.com.br/condominio/rua-jose-elias-lopes-400-campeche-florianopolis-k87sx28lvp,"Condomínio em Rua José Elías Lopes, 400","Rua José Elías Lopes, 400",Campeche,-27.70296287536621,-48.501678466796875,Salão de festas
https://www.quintoandar.com.br/condominio/mares-do-sul-ingleses-norte-florianopolis-2drrsx2ryd,Condomínio Mares do Sul,"Rua Lázaro de Oliveira Souza, 555",Ingleses,-27.422624588012695,-48.40513229370117,Elevador; Playground; Quadra esportiva; Brinquedoteca; Piscina; Corrimão; Academia; Vaga de garagem acessível; Salão de festas; Churrasqueira; Salão de jogos
https://www.quintoandar.com.br/condominio/costa-do-sol-ingleses-do-rio-vermelho-florianopolis-3keys0yx2p,Condomínio Costa do Sol,"Rua Dante de Patta, 344",Ingleses,-27.434328079223633,-48.396751403808594,Churrasqueira; Vaga de garagem acessível; Rampas de acesso
https://www.quintoandar.com.br/condominio/associasao-de-moradores-aruba-bonaire-ingleses-norte-florianopolis-6knzs86ryk,Condomínio Associasao de Moradores Aruba Bonaire,"Estrada Dário Manoel Cardoso, 1206",Ingleses,-27.448532104492188,-48.39728927612305,Elevador; Gás encanado
https://www.quintoandar.com.br/condominio/seven-residencial-boutique-lagoa-pequena-florianopolis-wdw2s889ed,Condomínio Seven Residencial Boutique,"Rua Nivaldo Dias, 102",Rio Tavares,-27.66405487060547,-48.47758483886719,Elevador; Salão de jogos; Vaga de garagem acessível; Academia; Rampas de acesso; Lavanderia no prédio; Piscina; Corrimão; Salão de festas; Gás encanado; Espaço gourmet na área comum; Piso tátil; Área verde
https://www.quintoandar.com.br/condominio/rua-brisamar-145-ingleses-do-rio-vermelho-florianopolis-9dzqsqzqwd,"Condomínio em Rua Brisamar, 145","Rua Brisamar, 145",Ingleses,-27.426258087158203,-48.401912689208984,Vaga de garagem acessível; Elevador; Salão de jogos; Churrasqueira; Brinquedoteca; Playground; Piscina; Piso tátil; Academia; Corrimão; Rampas de acesso; Salão de festas; Espaço gourmet na área comum; Gás encanado
https://www.quintoandar.com.br/condominio/avenida-das-lagostas-950-jurere-florianopolis-2drrsgwqwd,"Condomínio em Avenida das Lagostas, 950","Avenida das Lagostas, 950",Jurerê,-27.444629669189453,-48.50762939453125,Churrasqueira; Espaço gourmet na área comum; Gás encanado; Salão de festas; Elevador; Academia; Sauna; Piscina; Portaria 24h
https://www.quintoandar.com.br/condominio/rua-florianopolis-577-vila-bertioga-sao-paulo-keys5j21lp,"Condomínio em Rua Florianópolis, 577","Rua Florianópolis, 577",Mooca,-23.565311431884766,-46.58427810668945,Churrasqueira; Brinquedoteca; Salão de festas; Quadra esportiva; Piscina; Elevador; Academia; Salão de jogos; Playground; Portaria 24h
https://www.quintoandar.com.br/condominio/rua-florianopolis-1431-mathias-velho-canoas-xplgs4o22k,"Condomínio em Rua Florianópolis, 1431","Rua Florianópolis, 1431",Harmonia,-29.906831741333008,-51.19569778442383,
